,area,location,point,lat,long,z
0,"EDSA after F/O SB, Philippines","17/F, Robinsons Cybergate Tower 1 Robinsons Cyberpark EDSA corner, Pioneer St, Mandaluyong, Metro Manila, Philippines","(14.5717936, 121.0476656, 0.0)",14.5717936,121.0476656,0.0
1,"EDSA Buendia NB, Philippines","United Nations Ave, Ermita, Manila, 1000 Metro Manila, Philippines","(14.5814595, 120.9836439, 0.0)",14.5814595,120.9836439,0.0
2,"EDSA Kalayaan NB, Philippines","Kalayaan Flyover, Metro Manila, Philippines","(14.5573124, 121.0395546, 0.0)",14.5573124,121.0395546,0.0
3,"C5 Katipunan CP. Garcia NB, Philippines","Katipunan Ave & C.P. Garcia Ave, Diliman, Quezon City, 1800 Metro Manila, Philippines","(14.6482894, 121.0743128, 0.0)",14.6482894,121.0743128,0.0
5,"C5 Lanuza SB, Philippines","Lanuza, Surigao del Sur, Philippines","(9.1515977, 126.0132051, 0.0)",9.1515977,126.0132051,0.0
6,"Marcos Highway Ligaya EB, Philippines","Eulogio Amang Rodriguez Ave, 1800 Marikina-Infanta Hwy, Pasig, 1800 Metro Manila, Philippines","(14.6182313, 121.093512, 0.0)",14.6182313,121.093512,0.0
7,"C5 Lanuza Intersection NB, Philippines","C-5 & Lanuza Ave, Pasig, Metro Manila, Philippines","(14.5776676, 121.0733921, 0.0)",14.5776676,121.0733921,0.0
9," Quezon Ave. Roces EB, Philippines","68 Don A. Roces Ave, Diliman, Quezon City, 1103 Metro Manila, Philippines","(14.6300185, 121.0267021, 0.0)",14.6300185,121.0267021,0.0
11,"EDSA vv. Soliven SB, Philippines","San Juan, Metro Manila, Philippines","(14.6052647, 121.0573573, 0.0)",14.6052647,121.0573573,0.0
12,"C5 Boni Serrano Tunnel SB, Philippines","C-5, Metro Manila, Philippines","(14.5588814, 121.0649006, 0.0)",14.5588814,121.0649006,0.0
14,"Commonwealth Balara WB, Philippines","Amsterdam Avenue, Don Antonio Drive, Brgy. Batasan Hills, Matandang Balara, Quezon City, 1109 Metro Manila, Philippines","(14.6765861, 121.0872741, 0.0)",14.6765861,121.0872741,0.0
15,"Commonwealth Balara WB, Philippines","Amsterdam Avenue, Don Antonio Drive, Brgy. Batasan Hills, Matandang Balara, Quezon City, 1109 Metro Manila, Philippines","(14.6765861, 121.0872741, 0.0)",14.6765861,121.0872741,0.0
16,"Commonwealth Tandang Sora EB, Philippines","Kalayaan St, Tandang Sora, Quezon City, 1107 Metro Manila, Philippines","(14.689559, 121.0508122, 0.0)",14.689559,121.0508122,0.0
19,"Commonwealth TSora EB, Philippines","Sm Aura Premier, McKinley Pkwy, Taguig, 1634 Metro Manila, Philippines","(14.546101, 121.054206, 0.0)",14.546101,121.054206,0.0
20,"Commonwealth Balara WB, Philippines","Amsterdam Avenue, Don Antonio Drive, Brgy. Batasan Hills, Matandang Balara, Quezon City, 1109 Metro Manila, Philippines","(14.6765861, 121.0872741, 0.0)",14.6765861,121.0872741,0.0
21,"Commonwealth Balara WB, Philippines","Amsterdam Avenue, Don Antonio Drive, Brgy. Batasan Hills, Matandang Balara, Quezon City, 1109 Metro Manila, Philippines","(14.6765861, 121.0872741, 0.0)",14.6765861,121.0872741,0.0
22,"EDSA Reliance NB, Philippines","EDSA cor. Reliance St., Brgy, Mandaluyong, Metro Manila, Philippines","(14.5767528, 121.0517717, 0.0)",14.5767528,121.0517717,0.0
23,"EDSA Reliance NB, Philippines","EDSA cor. Reliance St., Brgy, Mandaluyong, Metro Manila, Philippines","(14.5767528, 121.0517717, 0.0)",14.5767528,121.0517717,0.0
24,"EDSA SM North NB, Philippines","Unit 21 H LGF SM City Center, SM City North EDSA, North Avenue corner EDSA Lower Ground Floor Near the FoodCourt and SM Appliance, Bagong Pag-asa, Quezon City, 1105 Metro Manila, Philippines","(14.6566478, 121.0314804, 0.0)",14.6566478,121.0314804,0.0
25,"EDSA SM North NB, Philippines","Unit 21 H LGF SM City Center, SM City North EDSA, North Avenue corner EDSA Lower Ground Floor Near the FoodCourt and SM Appliance, Bagong Pag-asa, Quezon City, 1105 Metro Manila, Philippines","(14.6566478, 121.0314804, 0.0)",14.6566478,121.0314804,0.0
26,"EDSA Shaw Tunnel NB, Philippines","Mayaman, Diliman, Lungsod Quezon, Kalakhang Maynila, Philippines","(14.6464689, 121.0521788, 0.0)",14.6464689,121.0521788,0.0
27,"EDSA P. Tuazon Tunnel, Philippines","EDSA Aurora Blvd Tunnel, 655 Epifanio de los Santos Ave, Cubao, Quezon City, 1111 Metro Manila, Philippines","(14.6215316, 121.0501176, 0.0)",14.6215316,121.0501176,0.0
28,"EDSA Pioneer NB, Philippines","Pioneer St. cor EDSA, Mandaluyong, 1554 Metro Manila, Philippines","(14.5725722, 121.0483433, 0.0)",14.5725722,121.0483433,0.0
29,"EDSA P. Tuazon Tunnel, Philippines","EDSA Aurora Blvd Tunnel, 655 Epifanio de los Santos Ave, Cubao, Quezon City, 1111 Metro Manila, Philippines","(14.6215316, 121.0501176, 0.0)",14.6215316,121.0501176,0.0
31,"EDSA SM North NB, Philippines","Unit 21 H LGF SM City Center, SM City North EDSA, North Avenue corner EDSA Lower Ground Floor Near the FoodCourt and SM Appliance, Bagong Pag-asa, Quezon City, 1105 Metro Manila, Philippines","(14.6566478, 121.0314804, 0.0)",14.6566478,121.0314804,0.0
38,"North Ave. WB, Philippines",,,,,
43,"Aurora Katipunan EB, Philippines","Katipunan, Aurora Blvd, Project 4, Quezon City, Metro Manila, Philippines","(14.6307723, 121.0727009, 0.0)",14.6307723,121.0727009,0.0
44,"Highway 54 SB, Philippines","EDSA, Highway 54, Mandaluyong, 1554 Metro Manila, Philippines","(14.584252, 121.0552278, 0.0)",14.584252,121.0552278,0.0
46,"EDSA Santolan SB, Philippines","Ground Floor, Vertis North Mall, EDSA cor, North Ave, Bagong Pag-asa, Quezon City, 1104 Metro Manila, Philippines","(14.6564091, 121.0337515, 0.0)",14.6564091,121.0337515,0.0
47,"EDSA Santolan F/O SB, Philippines","Santolan-annapolis, Epifanio de los Santos Ave, San Juan, 1502 Kalakhang Maynila, Philippines","(14.607331, 121.05643, 0.0)",14.607331,121.05643,0.0
52,"EDSA Cabrera SB, Philippines",,,,,
53,"C5 Lanuza SB, Philippines","Lanuza, Surigao del Sur, Philippines","(9.1515977, 126.0132051, 0.0)",9.1515977,126.0132051,0.0
54,"EDSA Darrio Bridge NB, Philippines","1010 Epifanio de los Santos Ave, Bago Bantay, Quezon City, 1105 Metro Manila, Philippines","(14.656868, 121.025946, 0.0)",14.656868,121.025946,0.0
57,"Katipunan CP Garcia NB, Philippines","Unit 2 TBI, U.P. Ayala Technology Park C.P. Garcia, corner Katipunan Ave, Diliman, Quezon City, 1101 Metro Manila, Philippines","(14.6477889, 121.0732612, 0.0)",14.6477889,121.0732612,0.0
58,"Commonwealth Philcoa EB, Philippines","G/F DBP Bldg., Commonwealth Ave., Diliman,, Diliman, Quezon City, Metro Manila, Philippines","(14.654577, 121.053247, 0.0)",14.654577,121.053247,0.0
59,"EDSA Monte De Piedad SB, Philippines","Monte De Piedad, Southbound, Epifanio de los Santos Ave, Lungsod Quezon, Kalakhang Maynila, Philippines","(14.623738, 121.048881, 0.0)",14.623738,121.048881,0.0
60,"EDSA Approach Ortigas flyover SB, Philippines","Shaw Blvd, Ortigas Center, Mandaluyong, Metro Manila, Philippines","(14.5814475, 121.05338, 0.0)",14.5814475,121.05338,0.0
61,"EDSA Santolan F/O SB, Philippines","Santolan-annapolis, Epifanio de los Santos Ave, San Juan, 1502 Kalakhang Maynila, Philippines","(14.607331, 121.05643, 0.0)",14.607331,121.05643,0.0
80,"C5 McKinley NB, Philippines","C-5, Metro Manila, Philippines","(14.5588814, 121.0649006, 0.0)",14.5588814,121.0649006,0.0
83,"Quezon Ave. Delta EB, Philippines","West Avenue, Nayong Kaunlaran , 1104 Quezon City , Metro Manila, Quezon City, Metro Manila, Philippines","(14.6377462, 121.0265152, 0.0)",14.6377462,121.0265152,0.0
84,"Norht ave. SB, Philippines",,,,,
86,"EDSA Timog SB, Philippines","GMA International, 10F GMA Network Center, EDSA cor, Timog Ave, Diliman, Quezon City, 1103 Metro Manila, Philippines","(14.6332902, 121.0438737, 0.0)",14.6332902,121.0438737,0.0
89,"Magallanes SLEX SB, Philippines","Phase 2, Block 3, Lot 5 Paseo de Magallanes Promenade, SLEX Magallanes, Makati, 1232 Metro Manila, Philippines","(14.535059, 121.019033, 0.0)",14.535059,121.019033,0.0
90,"Otis Nagtahan WB, Philippines","Guazon Avenue, Paco, Manila, Metro Manila, Philippines","(14.592262, 120.9993273, 0.0)",14.592262,120.9993273,0.0
91,"Aurora Blvd. Katipunan EB, Philippines","938 Aurora Blvd, Cubao, Quezon City, 1109 Metro Manila, Philippines","(14.6266259, 121.0614968, 0.0)",14.6266259,121.0614968,0.0
92,"Commonwealth Luzon WB, Philippines","Diliman Commercial Center, 170 Commonwealth Ave, Quezon City, 1126 Metro Manila, Philippines","(14.6818872, 121.0854878, 0.0)",14.6818872,121.0854878,0.0
93,"N. Domingo Gilmore WB, Philippines",,,,,
94,"Ortigas AVe. EB, Philippines","Ortigas, Mandaluyong, Metro Manila, Philippines","(14.5878494, 121.0567228, 0.0)",14.5878494,121.0567228,0.0
97," Katipunan UP Town Center NB, Philippines","249, 216 Katipunan Ave, Diliman, Quezon City, 1800 Metro Manila, Philippines","(14.6507422, 121.0752145, 0.0)",14.6507422,121.0752145,0.0
98,"Katipunan UP Town Center NB, Philippines","249, 216 Katipunan Ave, Diliman, Quezon City, 1800 Metro Manila, Philippines","(14.6507422, 121.0752145, 0.0)",14.6507422,121.0752145,0.0
99,"EDSA Hi-way 54 SB, Philippines","EDSA Ext, Pasay, Metro Manila, Philippines","(14.5362036, 120.9888642, 0.0)",14.5362036,120.9888642,0.0
100,"EDSA Boni NB, Philippines","37 EDSA corner Boni Avenue, 37 Epifanio de los Santos Ave, Mandaluyong, 1550 Metro Manila, Philippines","(14.5721142, 121.0468128, 0.0)",14.5721142,121.0468128,0.0
101,"Ateneo gate 3 SB, Philippines","Katipunan Ave, Quezon City, 1108 Metro Manila, Philippines","(14.6398614, 121.0784939, 0.0)",14.6398614,121.0784939,0.0
105,"EDSA Reliance SB, Philippines","EDSA cor. Reliance St., Brgy, Mandaluyong, Metro Manila, Philippines","(14.5767528, 121.0517717, 0.0)",14.5767528,121.0517717,0.0
107,"EDSA Boni SB, Philippines","Edsa corner, Boni Ave, Mandaluyong City, Mandaluyong, 1550 Metro Manila, Philippines","(14.5724682, 121.0470239, 0.0)",14.5724682,121.0470239,0.0
109," EDSA Shaw Tunnel NB, Philippines","Mayaman, Diliman, Lungsod Quezon, Kalakhang Maynila, Philippines","(14.6464689, 121.0521788, 0.0)",14.6464689,121.0521788,0.0
110,"C5 Libis F/O SB, Philippines","C-5, Metro Manila, Philippines","(14.5588814, 121.0649006, 0.0)",14.5588814,121.0649006,0.0
111,"EDSA Magallanes Interchange NB, Philippines","Ortigas Ave, Ortigas Center, Quezon City, Metro Manila, Philippines","(14.5910279, 121.0603914, 0.0)",14.5910279,121.0603914,0.0
113,"Katipunan Aurora WB, Philippines","Katipunan, Aurora Blvd, Project 4, Quezon City, Metro Manila, Philippines","(14.6307723, 121.0727009, 0.0)",14.6307723,121.0727009,0.0
115,"EDSA  Pasay Road SB, Philippines","Taft Ave, Pasay, 1300 Metro Manila, Philippines","(14.5385754, 121.0006372, 0.0)",14.5385754,121.0006372,0.0
116,"EDSA Ayala NB, Philippines","Ayala, Station Dr, Makati, Metro Manila, Philippines","(14.5491906, 121.0279696, 0.0)",14.5491906,121.0279696,0.0
117,"C5 Calle Industria SB, Philippines","E Rodriguez Jr Avenue, cor Calle Industria, Brgy Bagumbayan, Quezon City, 1110 Metro Manila, Philippines","(14.6056052, 121.0793967, 0.0)",14.6056052,121.0793967,0.0
120,"Quezon Ave EDSA WB, Philippines","1107 Epifanio de los Santos Ave, Bago Bantay, Quezon City, 1105 Metro Manila, Philippines","(14.6558202, 121.0281724, 0.0)",14.6558202,121.0281724,0.0
126,"EDSA Megamall NB, Philippines","Ortigas Ave, Ortigas Center, Quezon City, Metro Manila, Philippines","(14.5910279, 121.0603914, 0.0)",14.5910279,121.0603914,0.0
129,"Elliptical North Ave. WB, Philippines","26th Floor, One Global Place, 25th St, Taguig, 1634 Kalakhang Maynila, Philippines","(14.5483194, 121.0470468, 0.0)",14.5483194,121.0470468,0.0
130,"EDSA Santolan SB, Philippines","Ground Floor, Vertis North Mall, EDSA cor, North Ave, Bagong Pag-asa, Quezon City, 1104 Metro Manila, Philippines","(14.6564091, 121.0337515, 0.0)",14.6564091,121.0337515,0.0
136,"EDSA Whiteplains NB, Philippines","Ortigas Ave, Ortigas Center, Quezon City, Metro Manila, Philippines","(14.5910279, 121.0603914, 0.0)",14.5910279,121.0603914,0.0
138,"Marcos Highway Tayug EB, Philippines","Marikina-Infanta Hwy, Marikina, 1801 Metro Manila, Philippines","(14.6259836, 121.0837404, 0.0)",14.6259836,121.0837404,0.0
139,"C5 Libis SB, Philippines","C-5, Metro Manila, Philippines","(14.5588814, 121.0649006, 0.0)",14.5588814,121.0649006,0.0
140,"Marcos Highway Tayug EB, Philippines","Marikina-Infanta Hwy, Marikina, 1801 Metro Manila, Philippines","(14.6259836, 121.0837404, 0.0)",14.6259836,121.0837404,0.0
141,"Mindanao Ave. North Avenue SB, Philippines","North Avenue, Bagong Pag-asa, Quezon City, Metro Manila, Philippines","(14.65217, 121.032333, 0.0)",14.65217,121.032333,0.0
144,"EDSA SM North NB, Philippines","Unit 21 H LGF SM City Center, SM City North EDSA, North Avenue corner EDSA Lower Ground Floor Near the FoodCourt and SM Appliance, Bagong Pag-asa, Quezon City, 1105 Metro Manila, Philippines","(14.6566478, 121.0314804, 0.0)",14.6566478,121.0314804,0.0
145,"EDSA Kalayaan NB, Philippines","Kalayaan Flyover, Metro Manila, Philippines","(14.5573124, 121.0395546, 0.0)",14.5573124,121.0395546,0.0
146,"EDSA Ayala Service road SB, Philippines","Ayala, Station Dr, Makati, Metro Manila, Philippines","(14.5491906, 121.0279696, 0.0)",14.5491906,121.0279696,0.0
147,"EDSA Ayala SB, Philippines","Ayala, Station Dr, Makati, Metro Manila, Philippines","(14.5491906, 121.0279696, 0.0)",14.5491906,121.0279696,0.0
150,"C5 Blueridge NB, Philippines","C-5, Metro Manila, Philippines","(14.5588814, 121.0649006, 0.0)",14.5588814,121.0649006,0.0
151,"EDSA Taft SB, Philippines","Taft Avenue, Epifanio de los Santos Ave, Pasay, 1300 Metro Manila, Philippines","(14.537669, 121.0021747, 0.0)",14.537669,121.0021747,0.0
152,"EDSA P. Tuazon SB, Philippines","EDSA, cor P. Tuazon Blvd, Cubao, Quezon City, Metro Manila, Philippines","(14.6165645, 121.0519775, 0.0)",14.6165645,121.0519775,0.0
154,"Orosa St. Burgos EB, Philippines","Burgos, Pangasinan, Philippines","(16.0627885, 119.8699493, 0.0)",16.0627885,119.8699493,0.0
155,"EDSA Santolan svc. rd., Philippines","Unnamed Road, Quezon City, Metro Manila, Philippines","(14.6311549, 121.0725611, 0.0)",14.6311549,121.0725611,0.0
156,"EDSA before Ayala SB, Philippines","SM City North EDSA, Epifanio Delos Santos Avenue, corner North Avenue, Santo Cristo, Bagong Pag-asa, Quezon City, 1105 Metro Manila, Philippines","(14.65628, 121.031023, 0.0)",14.65628,121.031023,0.0
157,"Mindanao Ave. Sauyo NB, Philippines","Old Sauyo Road, corner Mindanao Avenue, Novaliches, Quezon City, 1116 Metro Manila, Philippines","(14.6880939, 121.0317115, 0.0)",14.6880939,121.0317115,0.0
158,"Mindanao Ave. BJMP NB, Philippines","144 Mindanao Avenue, Project 8, Quezon City, 1106 Metro Manila, Philippines","(14.6696169, 121.0324952, 0.0)",14.6696169,121.0324952,0.0
160,"EDSA Ayala Tunnel NB, Philippines","Edsa-Ayala, Makati, Metro Manila, Philippines","(14.549372, 121.029081, 0.0)",14.549372,121.029081,0.0
161,"C5 Katipunan Intersection EB, Philippines","C-5, Quezon City, Metro Manila, Philippines","(14.6376425, 121.0744073, 0.0)",14.6376425,121.0744073,0.0
162,"EDSA Main Ave. NB, Philippines","37 EDSA corner Boni Avenue, 37 Epifanio de los Santos Ave, Mandaluyong, 1550 Metro Manila, Philippines","(14.5721142, 121.0468128, 0.0)",14.5721142,121.0468128,0.0
163,"Commonwealth Litex EB, Philippines","Al Commonwea, Lower Jasmin Basketball Court, Quezon City, Metro Manila, Philippines","(14.7035534, 121.0895401, 0.0)",14.7035534,121.0895401,0.0
164,"EDSA Whiteplains NB, Philippines","Ortigas Ave, Ortigas Center, Quezon City, Metro Manila, Philippines","(14.5910279, 121.0603914, 0.0)",14.5910279,121.0603914,0.0
165,"EDSA P. Tuazon svc. rd, Philippines","EDSA cor, P. Tuazon Blvd, Cubao, Lungsod Quezon, 1109 Kalakhang Maynila, Philippines","(14.6161275, 121.0522983, 0.0)",14.6161275,121.0522983,0.0
170,"Commo Tandang Sora WB, Philippines","26th Floor, One Global Place, 25th St, Taguig, 1634 Kalakhang Maynila, Philippines","(14.5483194, 121.0470468, 0.0)",14.5483194,121.0470468,0.0
172,"C5 Libis F/O NB, Philippines","Libis, Quezon City, 1800 Metro Manila, Philippines","(14.6165947, 121.0772212, 0.0)",14.6165947,121.0772212,0.0
177,"Commonwealth Techno-hub, Philippines","University of the Philippines, 1101 Commonwealth Ave, Diliman, Quezon City, Metro Manila, Philippines","(14.6577751, 121.0561016, 0.0)",14.6577751,121.0561016,0.0
178,"Commonwealth Winston EB, Philippines",,,,,
180,"Quezon Ave Elliptical EB, Philippines",,,,,
181,"Quezon Ave. EDSA Tunnel SB, Philippines","EDSA Aurora Blvd Tunnel, 655 Epifanio de los Santos Ave, Cubao, Quezon City, 1111 Metro Manila, Philippines","(14.6215316, 121.0501176, 0.0)",14.6215316,121.0501176,0.0
183,"Quezon Ave. Sto. Domingo WB, Philippines","537 Quezon Ave, Santa Mesa Heights, Quezon City, Metro Manila, Philippines","(14.6264114, 121.0103836, 0.0)",14.6264114,121.0103836,0.0
186,"EDSA Annapolis SB, Philippines","Unit 21 H LGF SM City Center, SM City North EDSA, North Avenue corner EDSA Lower Ground Floor Near the FoodCourt and SM Appliance, Bagong Pag-asa, Quezon City, 1105 Metro Manila, Philippines","(14.6566478, 121.0314804, 0.0)",14.6566478,121.0314804,0.0
187,"Katipunan Ayala heights NB, Philippines","Ayala Heights Dr, Matandang Balara, Quezon City, Metro Manila, Philippines","(14.6659323, 121.0866712, 0.0)",14.6659323,121.0866712,0.0
188,"EDSA Megamall NB, Philippines","Ortigas Ave, Ortigas Center, Quezon City, Metro Manila, Philippines","(14.5910279, 121.0603914, 0.0)",14.5910279,121.0603914,0.0
190,"Commonwealth St. Peter EB, Philippines","Commonwealth Ave, Matandang Balara, Quezon City, 1119 Metro Manila, Philippines","(14.662917, 121.067715, 0.0)",14.662917,121.067715,0.0
192,"EDSA SM North, Philippines","SM City North EDSA North Towers, Level 2, Bagong Pag-asa, Quezon City, 1105 Metro Manila, Philippines","(14.6576547, 121.0338408, 0.0)",14.6576547,121.0338408,0.0
201,"EDSA Estrella SB, Philippines","Epifanio de los Santos Avenue & Estrella, Makati, Metro Manila, Philippines","(14.5599457, 121.0406986, 0.0)",14.5599457,121.0406986,0.0
204,"EDSA Ayala NB, Philippines","Ayala, Station Dr, Makati, Metro Manila, Philippines","(14.5491906, 121.0279696, 0.0)",14.5491906,121.0279696,0.0
205,"EDSA P. Tuazon Tunnel SB, Philippines","EDSA Aurora Blvd Tunnel, 655 Epifanio de los Santos Ave, Cubao, Quezon City, 1111 Metro Manila, Philippines","(14.6215316, 121.0501176, 0.0)",14.6215316,121.0501176,0.0
206,"EDSA Monte SB, Philippines","8001-A. North, Epifanio de los Santos Ave, Project 7, Quezon City, 1105 Metro Manila, Philippines","(14.657141, 121.020709, 0.0)",14.657141,121.020709,0.0
207,"EDSA Guadalupe MRT NB, Philippines","Guadalupe, ext.cembo Guadalupe 1212, Guijo, Makati, Metro Manila, Philippines","(14.5667504, 121.0454767, 0.0)",14.5667504,121.0454767,0.0
209,"EDSA Timog SB, Philippines","GMA International, 10F GMA Network Center, EDSA cor, Timog Ave, Diliman, Quezon City, 1103 Metro Manila, Philippines","(14.6332902, 121.0438737, 0.0)",14.6332902,121.0438737,0.0
210,"C5 Katipunan Aurora WB, Philippines","26th Floor, One Global Place, 25th St, Taguig, 1634 Kalakhang Maynila, Philippines","(14.5483194, 121.0470468, 0.0)",14.5483194,121.0470468,0.0
212,"EDSA Magallanes SB, Philippines","Magallanes Station, Epifanio de los Santos Ave, Makati, Metro Manila, Philippines","(14.5420229, 121.0194852, 0.0)",14.5420229,121.0194852,0.0
215,"Villamor Rotonda EB, Philippines","Villamor, Pasay, Metro Manila, Philippines","(14.5268221, 121.0148742, 0.0)",14.5268221,121.0148742,0.0
216,"EDSA  Buendia NB, Philippines","United Nations Ave, Ermita, Manila, 1000 Metro Manila, Philippines","(14.5814595, 120.9836439, 0.0)",14.5814595,120.9836439,0.0
219,"Araneta cor Palansa St. NB, Philippines","#14 Araneta Avenue, Corner Palanza Street, Quezon City, Quezon City, Metro Manila, Philippines","(14.608033, 121.017408, 0.0)",14.608033,121.017408,0.0
220,"EDSA Taft Ave. MRT NB, Philippines","Taft Avenue, Epifanio de los Santos Ave, Pasay, 1300 Metro Manila, Philippines","(14.537669, 121.0021747, 0.0)",14.537669,121.0021747,0.0
221,"C5 Kalayaan elevated U-turn slot , Philippines","Elevated U-Turn, Makati, Metro Manila, Philippines","(14.5568033, 121.063609, 0.0)",14.5568033,121.063609,0.0
224,"Quezon Ave. Delta WB, Philippines","West Avenue, Nayong Kaunlaran , 1104 Quezon City , Metro Manila, Quezon City, Metro Manila, Philippines","(14.6377462, 121.0265152, 0.0)",14.6377462,121.0265152,0.0
226,"C5 after F/O SB, Philippines",,,,,
228,"EDSA MRT Ortigas NB, Philippines","Ortigas, Mandaluyong, Metro Manila, Philippines","(14.5878494, 121.0567228, 0.0)",14.5878494,121.0567228,0.0
229,"C5 Katipunan CP Garcia SB, Philippines","Katipunan Ave & C.P. Garcia Ave, Diliman, Quezon City, 1800 Metro Manila, Philippines","(14.6482894, 121.0743128, 0.0)",14.6482894,121.0743128,0.0
230,"EDSA Ayala Tunnel NB, Philippines","Edsa-Ayala, Makati, Metro Manila, Philippines","(14.549372, 121.029081, 0.0)",14.549372,121.029081,0.0
231,"EDSA Shaw tunnel SB, Philippines","Shaw Boulevard, Ortigas Center, Mandaluyong, Metro Manila, Philippines","(14.5812485, 121.0536577, 0.0)",14.5812485,121.0536577,0.0
232,"EDSA Polymedic SB, Philippines","Rom 205 Hospital Building, Integrative Medicine, ~ 163 Edsa, Mandaluyong, Metro Manila, Philippines","(14.577039, 121.050082, 0.0)",14.577039,121.050082,0.0
233,"EDSA Polymedic SB, Philippines","Rom 205 Hospital Building, Integrative Medicine, ~ 163 Edsa, Mandaluyong, Metro Manila, Philippines","(14.577039, 121.050082, 0.0)",14.577039,121.050082,0.0
234,"Ortigas Emerald EB, Philippines","22 Emerald Ave, San Antonio, Pasig, Metro Manila, Philippines","(14.5855824, 121.0614136, 0.0)",14.5855824,121.0614136,0.0
235,"EDSA Estrella SB, Philippines","Epifanio de los Santos Avenue & Estrella, Makati, Metro Manila, Philippines","(14.5599457, 121.0406986, 0.0)",14.5599457,121.0406986,0.0
237,"EDSA P.Tuazon NB, Philippines","EDSA cor, P. Tuazon Blvd, Cubao, Lungsod Quezon, 1109 Kalakhang Maynila, Philippines","(14.6161275, 121.0522983, 0.0)",14.6161275,121.0522983,0.0
238,"EDSA Annapolis SB, Philippines","Unit 21 H LGF SM City Center, SM City North EDSA, North Avenue corner EDSA Lower Ground Floor Near the FoodCourt and SM Appliance, Bagong Pag-asa, Quezon City, 1105 Metro Manila, Philippines","(14.6566478, 121.0314804, 0.0)",14.6566478,121.0314804,0.0
240,"EDSA North Ave NB, Philippines","North Avenue, Bagong Pag-asa, Quezon City, Metro Manila, Philippines","(14.65217, 121.032333, 0.0)",14.65217,121.032333,0.0
241,"C5 Greenmeadow SB, Philippines","C-5, Metro Manila, Philippines","(14.5588814, 121.0649006, 0.0)",14.5588814,121.0649006,0.0
245,"Ortigas Ave. before POEA EB, Philippines","Ortigas Avenue, Blas F. Ople Building, corner Epifanio de los Santos Ave, Mandaluyong, Metro Manila, Philippines","(14.5930233, 121.0578696, 0.0)",14.5930233,121.0578696,0.0
249,"C5 Kalayaan SB, Philippines","144-A J.P. Rizal St, Makati, 1216 Metro Manila, Philippines","(14.5554718, 121.0648637, 0.0)",14.5554718,121.0648637,0.0
251,"EDSA Kaingin SB, Philippines","Kaingin Road, Epifanio de los Santos Ave, Balintawak, Quezon City, Metro Manila, Philippines","(14.6573199, 121.0106323, 0.0)",14.6573199,121.0106323,0.0
252,"C5 Katipunan Major Dizon NB, Philippines","C-5, Metro Manila, Philippines","(14.5588814, 121.0649006, 0.0)",14.5588814,121.0649006,0.0
253,"EDSA Buendia SB, Philippines","G/F SM Cyber Two Bldg., EDSA Buendia, Makati, 1226 Metro Manila, Philippines","(14.5561598, 121.0342554, 0.0)",14.5561598,121.0342554,0.0
255,"C5 Katipunan Ateneo  NB, Philippines","Katipunan Ave, Quezon City, 1108 Metro Manila, Philippines","(14.6398614, 121.0784939, 0.0)",14.6398614,121.0784939,0.0
256," EDSA Magallanes NB, Philippines","Ortigas Ave, Ortigas Center, Quezon City, Metro Manila, Philippines","(14.5910279, 121.0603914, 0.0)",14.5910279,121.0603914,0.0
258,"Lacson G. Tuazon SB, Philippines","301 G. Tuazon cor. E. Queintos sts., Balic-balic, Sampaloc, Manila Manila City, Sampaloc, Manila, 1008 Metro Manila, Philippines","(14.6070107, 121.0029809, 0.0)",14.6070107,121.0029809,0.0
260,"C5 Kalayaan NB, Philippines","C-5 & Kalayaan Ave, Makati, Metro Manila, Philippines","(14.5564054, 121.0631174, 0.0)",14.5564054,121.0631174,0.0
262,"EDSA Rockwell SB, Philippines","2/F Pavilion Greenfield District, Mandaluyong, 1552 Metro Manila, Philippines","(14.5787048, 121.0528717, 0.0)",14.5787048,121.0528717,0.0
264,"EDSA Ayala tunnel NB, Philippines","Edsa-Ayala, Makati, Metro Manila, Philippines","(14.549372, 121.029081, 0.0)",14.549372,121.029081,0.0
265,"EDSA Guadalupe NB, Philippines","2195 Epifanio de los Santos Ave, Makati, 1554 Metro Manila, Philippines","(14.5644828, 121.0451481, 0.0)",14.5644828,121.0451481,0.0
266,"Roxas Quirino SB, Philippines","Quirino Ave Ext, Paco, Manila, Metro Manila, Philippines","(14.5826074, 120.9985044, 0.0)",14.5826074,120.9985044,0.0
267,"C5 Kalayaan NB, Philippines","C-5 & Kalayaan Ave, Makati, Metro Manila, Philippines","(14.5564054, 121.0631174, 0.0)",14.5564054,121.0631174,0.0
268,"C5 Kalayaan NB, Philippines","C-5 & Kalayaan Ave, Makati, Metro Manila, Philippines","(14.5564054, 121.0631174, 0.0)",14.5564054,121.0631174,0.0
269,"EDSA Balintawak SB, Philippines","1238 Epifanio de los Santos Ave, Balintawak, Quezon City, 1106 Metro Manila, Philippines","(14.65799, 121.013701, 0.0)",14.65799,121.013701,0.0
270,"MIA Macapagal, Philippines","G/F Main Mall, SM Central Business Park, Seaside Blvd, 123, Pasay, 1300 Metro Manila, Philippines","(14.5353196, 120.9826773, 0.0)",14.5353196,120.9826773,0.0
271,"EDSA Balintawak SB, Philippines","1238 Epifanio de los Santos Ave, Balintawak, Quezon City, 1106 Metro Manila, Philippines","(14.65799, 121.013701, 0.0)",14.65799,121.013701,0.0
272,"EDSA Guadalupe SB, Philippines","Tan Hock Bldg. Edsa, Cor P.Burgos, St, Makati, Kalakhang Maynila, Philippines","(14.5652663, 121.0453941, 0.0)",14.5652663,121.0453941,0.0
273,"EDSA Magallanes F/O NB, Philippines","EDSA, corner Magallanes Avenue, Pasay City, 1300 Metro Manila, Philippines","(14.5389703, 121.0136577, 0.0)",14.5389703,121.0136577,0.0
274,"NIA Rd. NPO, Philippines","San Miguel, Iloilo, Philippines","(10.779201, 122.452594, 0.0)",10.779201,122.452594,0.0
276,"C5 Libis SB, Philippines","C-5, Metro Manila, Philippines","(14.5588814, 121.0649006, 0.0)",14.5588814,121.0649006,0.0
277,"Ortigas Robison EB, Philippines","Ortigas Ave, Ortigas Center, Quezon City, Metro Manila, Philippines","(14.5910506, 121.0598379, 0.0)",14.5910506,121.0598379,0.0
279,"EDSA New York SB, Philippines",,,,,
280,"Commonwealth FCM EB, Philippines",,,,,
281," C5 Katipunan CP. Garcia NB, Philippines","Katipunan Ave & C.P. Garcia Ave, Diliman, Quezon City, 1800 Metro Manila, Philippines","(14.6482894, 121.0743128, 0.0)",14.6482894,121.0743128,0.0
282,"C5 Greenmeadows SB, Philippines","Green Meadows Ave, Pasig City, Manila, Metro Manila, Philippines","(14.5981138, 121.0750737, 0.0)",14.5981138,121.0750737,0.0
284,"EDSA Ayala Intersection SB, Philippines","Ayala, Station Dr, Makati, Metro Manila, Philippines","(14.5491906, 121.0279696, 0.0)",14.5491906,121.0279696,0.0
285,"C5 Ateneo Katipunan Gate 1 NB, Philippines","Katipunan Ave, Quezon City, 1108 Metro Manila, Philippines","(14.6398614, 121.0784939, 0.0)",14.6398614,121.0784939,0.0
287,"EDSA before Santolan F/O NB, Philippines","Santolan-annapolis, Epifanio de los Santos Ave, San Juan, 1502 Kalakhang Maynila, Philippines","(14.607331, 121.05643, 0.0)",14.607331,121.05643,0.0
292,"C5 Greenmeadows NB, Philippines","Green Meadows Ave, Pasig City, Manila, Metro Manila, Philippines","(14.5981138, 121.0750737, 0.0)",14.5981138,121.0750737,0.0
293,"C5 Greenmeadows NB, Philippines","Green Meadows Ave, Pasig City, Manila, Metro Manila, Philippines","(14.5981138, 121.0750737, 0.0)",14.5981138,121.0750737,0.0
294,"C5 Kalayaan SB, Philippines","144-A J.P. Rizal St, Makati, 1216 Metro Manila, Philippines","(14.5554718, 121.0648637, 0.0)",14.5554718,121.0648637,0.0
295,"C5 Ortigas U Turn Slot, Philippines","C-5, Metro Manila, Philippines","(14.5588814, 121.0649006, 0.0)",14.5588814,121.0649006,0.0
296,"EDSA Reliance NB, Philippines","EDSA cor. Reliance St., Brgy, Mandaluyong, Metro Manila, Philippines","(14.5767528, 121.0517717, 0.0)",14.5767528,121.0517717,0.0
301,"EDSA - Cubao NB underpass, Philippines","Gateway Tower, Cubao, Quezon City, 0810 Metro Manila, Philippines","(14.620756, 121.0529557, 0.0)",14.620756,121.0529557,0.0
304,"Ortigas corner Lanuza EB, Philippines","Corner Asian Development Bank Ave, Ortigas Ave, Ortigas Center, Quezon City, 1100 Metro Manila, Philippines","(14.5906766, 121.0609033, 0.0)",14.5906766,121.0609033,0.0
307,"C5 Bagong Ilog SB, Philippines","C-5, Pasig, Metro Manila, Philippines","(14.5643396, 121.0696684, 0.0)",14.5643396,121.0696684,0.0
308,"EDSA Guadalupe MRT NB, Philippines","Guadalupe, ext.cembo Guadalupe 1212, Guijo, Makati, Metro Manila, Philippines","(14.5667504, 121.0454767, 0.0)",14.5667504,121.0454767,0.0
311,"C5 Katipunan Berkeley SB, Philippines","J Escaler, Quezon City, 1800 Metro Manila, Philippines","(14.6446188, 121.0740867, 0.0)",14.6446188,121.0740867,0.0
312,"11th Jamboree Timog Ave. EB, Philippines","Timog Ave, Diliman, Quezon City, Metro Manila, Philippines","(14.6348409, 121.0353466, 0.0)",14.6348409,121.0353466,0.0
313,"C5 Katipunan Mirriam SB, Philippines","C-5 & Katipunan Ave, Project 4, Quezon City, 1800 Metro Manila, Philippines","(14.61797, 121.0715627, 0.0)",14.61797,121.0715627,0.0
316,"20th Ave. B. Serrano SB, Philippines","20th Ave, Quezon City, Metro Manila, Philippines","(14.6201891, 121.0634193, 0.0)",14.6201891,121.0634193,0.0
318,"EDSA Buendia SB, Philippines","G/F SM Cyber Two Bldg., EDSA Buendia, Makati, 1226 Metro Manila, Philippines","(14.5561598, 121.0342554, 0.0)",14.5561598,121.0342554,0.0
319,"EDSA Magallanes Loading bay NB, Philippines","EDSA, corner Magallanes Avenue, Pasay City, 1300 Metro Manila, Philippines","(14.5389703, 121.0136577, 0.0)",14.5389703,121.0136577,0.0
325,"EDSA Megamall NB, Philippines","Ortigas Ave, Ortigas Center, Quezon City, Metro Manila, Philippines","(14.5910279, 121.0603914, 0.0)",14.5910279,121.0603914,0.0
326,"EDSA Central NB, Philippines","United Nations Ave, Ermita, Manila, 1000 Metro Manila, Philippines","(14.5814595, 120.9836439, 0.0)",14.5814595,120.9836439,0.0
327,"EDSA Megamall NB, Philippines","Ortigas Ave, Ortigas Center, Quezon City, Metro Manila, Philippines","(14.5910279, 121.0603914, 0.0)",14.5910279,121.0603914,0.0
329,"EDSA SM North NB, Philippines","Unit 21 H LGF SM City Center, SM City North EDSA, North Avenue corner EDSA Lower Ground Floor Near the FoodCourt and SM Appliance, Bagong Pag-asa, Quezon City, 1105 Metro Manila, Philippines","(14.6566478, 121.0314804, 0.0)",14.6566478,121.0314804,0.0
330,"EDSA SM North NB, Philippines","Unit 21 H LGF SM City Center, SM City North EDSA, North Avenue corner EDSA Lower Ground Floor Near the FoodCourt and SM Appliance, Bagong Pag-asa, Quezon City, 1105 Metro Manila, Philippines","(14.6566478, 121.0314804, 0.0)",14.6566478,121.0314804,0.0
331,"EDSA Pioneer NB, Philippines","Pioneer St. cor EDSA, Mandaluyong, 1554 Metro Manila, Philippines","(14.5725722, 121.0483433, 0.0)",14.5725722,121.0483433,0.0
332,"B. Serrano EDSA EB, Philippines","438 EDSA, cor B. Serrano Footbridge, St, Caloocan, 1400 Kalakhang Maynila, Philippines","(14.6569779, 120.9885844, 0.0)",14.6569779,120.9885844,0.0
333,"EDSA Magallanes F/O NB, Philippines","EDSA, corner Magallanes Avenue, Pasay City, 1300 Metro Manila, Philippines","(14.5389703, 121.0136577, 0.0)",14.5389703,121.0136577,0.0
334,"EDSA Aurora svc. rd. NB, Philippines","EDSA Aurora Blvd Tunnel, 655 Epifanio de los Santos Ave, Cubao, Quezon City, 1111 Metro Manila, Philippines","(14.6215316, 121.0501176, 0.0)",14.6215316,121.0501176,0.0
340,"EDSA Apo St. SB, Philippines","8001-A. North, Epifanio de los Santos Ave, Project 7, Quezon City, 1105 Metro Manila, Philippines","(14.657141, 121.020709, 0.0)",14.657141,121.020709,0.0
343,"Ayala EB, Philippines",,,,,
345,"EDSA Monte svc. rd. NB, Philippines","Quezon Avenue, 1103 Epifanio de los Santos Ave, Diliman, Quezon City, Metro Manila, Philippines","(14.6427595, 121.0385078, 0.0)",14.6427595,121.0385078,0.0
347,"C5 Lanuza NB, Philippines","Lanuza, Surigao del Sur, Philippines","(9.1515977, 126.0132051, 0.0)",9.1515977,126.0132051,0.0
351,"Araneta Caliraya NB, Philippines","Caliraya Resort Club Inc., Brgy. Lewin, Lumban, Laguna, Philippines","(14.2964062, 121.4964872, 0.0)",14.2964062,121.4964872,0.0
352,"EDSA Boni SB, Philippines","Edsa corner, Boni Ave, Mandaluyong City, Mandaluyong, 1550 Metro Manila, Philippines","(14.5724682, 121.0470239, 0.0)",14.5724682,121.0470239,0.0
356,"EDSA P. Tuazon, Philippines","Cubao, Quezon City, Metro Manila, Philippines","(14.6175838, 121.0521578, 0.0)",14.6175838,121.0521578,0.0
357,"EDSA Pioneer NB, Philippines","Pioneer St. cor EDSA, Mandaluyong, 1554 Metro Manila, Philippines","(14.5725722, 121.0483433, 0.0)",14.5725722,121.0483433,0.0
359,"C5 Eastwood SB, Philippines","Eulogio Rodriguez Jr. Ave, Bagumbayan, Quezon City, 1800 Metro Manila, Philippines","(14.6096463, 121.0796001, 0.0)",14.6096463,121.0796001,0.0
361,"Commonwealth Winston WB, Philippines","26th Floor, One Global Place, 25th St, Taguig, 1634 Kalakhang Maynila, Philippines","(14.5483194, 121.0470468, 0.0)",14.5483194,121.0470468,0.0
362,"EDSA NRRS NB, Philippines","North Avenue corner EDSA SM City North EDSA Complex, Bagong Pag-asa, Quezon City, 1105 Metro Manila, Philippines","(14.6559825, 121.0331482, 0.0)",14.6559825,121.0331482,0.0
363,"Ortigas C5 EB, Philippines","C-5, Metro Manila, Philippines","(14.5588814, 121.0649006, 0.0)",14.5588814,121.0649006,0.0
364,"EDSA Ayala tunnel NB, Philippines","Edsa-Ayala, Makati, Metro Manila, Philippines","(14.549372, 121.029081, 0.0)",14.549372,121.029081,0.0
366,"EDSA  Connecticut NB, Philippines","Ortigas Ave, Ortigas Center, Quezon City, Metro Manila, Philippines","(14.5910279, 121.0603914, 0.0)",14.5910279,121.0603914,0.0
367,"EDSA Megamall Loading Bay NB, Philippines",,,,,
368,"North Ave. Mindanao WB, Philippines","167 Cabaguio Ave, Agdao, Davao City, 8000 Davao del Sur, Philippines","(7.094158699999999, 125.6212431, 0.0)",7.094158699999999,125.6212431,0.0
369,"EDSA Shaw Intersection NB, Philippines","Shaw Boulevard, Ortigas Center, Mandaluyong, Metro Manila, Philippines","(14.5812485, 121.0536577, 0.0)",14.5812485,121.0536577,0.0
370,"C5 Padre Pio Libis NB, Philippines","C-5, Metro Manila, Philippines","(14.5588814, 121.0649006, 0.0)",14.5588814,121.0649006,0.0
371,"EDSA P. Tuazon Tunnel SB, Philippines","EDSA Aurora Blvd Tunnel, 655 Epifanio de los Santos Ave, Cubao, Quezon City, 1111 Metro Manila, Philippines","(14.6215316, 121.0501176, 0.0)",14.6215316,121.0501176,0.0
375,"EDSA Santolan F/O SB, Philippines","Santolan-annapolis, Epifanio de los Santos Ave, San Juan, 1502 Kalakhang Maynila, Philippines","(14.607331, 121.05643, 0.0)",14.607331,121.05643,0.0
377,"España Blumentritt WB, Philippines","España Blvd, Sampaloc, Manila, 1008 Metro Manila, Philippines","(14.6157267, 120.9991186, 0.0)",14.6157267,120.9991186,0.0
378,"Marcos Highway Town and Country WB, Philippines",,,,,
380,"EDSA Guadalupe bridge SB, Philippines","Epifanio de los Santos Ave, Metro Manila, Philippines","(14.5766435, 121.0501616, 0.0)",14.5766435,121.0501616,0.0
381,"EDSA Annapolis SB, Philippines","Unit 21 H LGF SM City Center, SM City North EDSA, North Avenue corner EDSA Lower Ground Floor Near the FoodCourt and SM Appliance, Bagong Pag-asa, Quezon City, 1105 Metro Manila, Philippines","(14.6566478, 121.0314804, 0.0)",14.6566478,121.0314804,0.0
382,"C5 Ortigas F/O SB, Philippines","C-5, Metro Manila, Philippines","(14.5588814, 121.0649006, 0.0)",14.5588814,121.0649006,0.0
383,"EDSA Kamuning SB, Philippines","GMA Kamuning Station, 32 Samar Ave, Diliman, Quezon City, 1103 Metro Manila, Philippines","(14.6352168, 121.0433426, 0.0)",14.6352168,121.0433426,0.0
384,"C5 Eastwood SB, Philippines","Eulogio Rodriguez Jr. Ave, Bagumbayan, Quezon City, 1800 Metro Manila, Philippines","(14.6096463, 121.0796001, 0.0)",14.6096463,121.0796001,0.0
387,"EDSA Santolan NB, Philippines","Mayaman, Diliman, Lungsod Quezon, Kalakhang Maynila, Philippines","(14.6464689, 121.0521788, 0.0)",14.6464689,121.0521788,0.0
388,"EDSA Pasay Road before Intersection NB, Philippines","Taft Ave, Pasay, 1300 Metro Manila, Philippines","(14.5385754, 121.0006372, 0.0)",14.5385754,121.0006372,0.0
389,"EDSA Main Ave. NB, Philippines","37 EDSA corner Boni Avenue, 37 Epifanio de los Santos Ave, Mandaluyong, 1550 Metro Manila, Philippines","(14.5721142, 121.0468128, 0.0)",14.5721142,121.0468128,0.0
390,"EDSA Kamias NB, Philippines","#3 Corner Edsa Barangay Pinyahan, Diliman, Quezon City, Metro Manila, Philippines","(14.6311048, 121.0461712, 0.0)",14.6311048,121.0461712,0.0
391,"EDSA Magallanes F/O NB, Philippines","EDSA, corner Magallanes Avenue, Pasay City, 1300 Metro Manila, Philippines","(14.5389703, 121.0136577, 0.0)",14.5389703,121.0136577,0.0
392,"C5 Kalayaan NB, Philippines","C-5 & Kalayaan Ave, Makati, Metro Manila, Philippines","(14.5564054, 121.0631174, 0.0)",14.5564054,121.0631174,0.0
393,"EDSA Shaw Central Service Road NB, Philippines","EDSA corner Shaw Boulevard, Mandaluyong City Mandaluyong City Metro Manila, Mandaluyong, Metro Manila, Philippines","(14.5796746, 121.0532372, 0.0)",14.5796746,121.0532372,0.0
394,"EDSA Ayala svc. rd., Philippines","Ayala Center, Makati, 1226 Metro Manila, Philippines","(14.5512398, 121.0253682, 0.0)",14.5512398,121.0253682,0.0
396,"EDSA Guadalupe NB, Philippines","2195 Epifanio de los Santos Ave, Makati, 1554 Metro Manila, Philippines","(14.5644828, 121.0451481, 0.0)",14.5644828,121.0451481,0.0
397,"EDSA  Guadalupe  NB, Philippines","2195 Epifanio de los Santos Ave, Makati, 1554 Metro Manila, Philippines","(14.5644828, 121.0451481, 0.0)",14.5644828,121.0451481,0.0
398,"Andrew Circulo Del Mundo WB, Philippines","Circulo del Mundo, Pasay, Metro Manila, Philippines","(14.5243272, 121.0116399, 0.0)",14.5243272,121.0116399,0.0
401,"Roxas Blvd. MIA road NB, Philippines","Vicente Sotto St, Pasay, Metro Manila, Philippines","(14.5544983, 120.9830333, 0.0)",14.5544983,120.9830333,0.0
404,"C5 Julia Vargas NB, Philippines","C-5 & Doña Julia Vargas Ave, Pasig, Metro Manila, Philippines","(14.5827086, 121.0769766, 0.0)",14.5827086,121.0769766,0.0
405,"España Vicente Cruz EB, Philippines","870 Vicente Cruz St, Sampaloc, Manila, 1008 Metro Manila, Philippines","(14.6114965, 120.9954986, 0.0)",14.6114965,120.9954986,0.0
412,"Ortigas Avenue Greenhill WB, Philippines","Ortigas Ave, San Juan, 1502 Metro Manila, Philippines","(14.6013926, 121.0491142, 0.0)",14.6013926,121.0491142,0.0
413,"Ortigas Avenue Greenhills WB, Philippines","Ortigas Ave, San Juan, 1502 Metro Manila, Philippines","(14.6013926, 121.0491142, 0.0)",14.6013926,121.0491142,0.0
414,"Villamor Sales EB, Philippines","Mata street, Barangay 183, Villamor, Pasay City, Andrews Ave, Pasay, 1309 Kalakhang Maynila, Philippines","(14.5251929, 121.0125611, 0.0)",14.5251929,121.0125611,0.0
416,"C5 Kalayaan NB, Philippines","C-5 & Kalayaan Ave, Makati, Metro Manila, Philippines","(14.5564054, 121.0631174, 0.0)",14.5564054,121.0631174,0.0
417," EDSA SB Camp Crame, Philippines","Bagong Lipunan Ng Crame, Cubao, Quezon City, Metro Manila, Philippines","(14.6078572, 121.053216, 0.0)",14.6078572,121.053216,0.0
418," Roxas Blvd. HK Plaza SB, Philippines","Diosdado Macapagal Blvd, Pasay, Metro Manila, Philippines","(14.5459841, 120.9888879, 0.0)",14.5459841,120.9888879,0.0
419," EDSA NB, Kalayaan, Philippines","Kalayaan Avenue corner EDSA, Bgy Pinagkaisahan, Makati, 1213 Metro Manila, Philippines","(14.5575809, 121.0395946, 0.0)",14.5575809,121.0395946,0.0
420," EDSA Kalayaan NB, Philippines","Kalayaan Flyover, Metro Manila, Philippines","(14.5573124, 121.0395546, 0.0)",14.5573124,121.0395546,0.0
421," EDSA Ayala Tunnel NB, Philippines","Edsa-Ayala, Makati, Metro Manila, Philippines","(14.549372, 121.029081, 0.0)",14.549372,121.029081,0.0
423," Timog Ave. 11th Jamboree, Philippines","Timog Avenue & 11th Jamboree, Diliman, Quezon City, Metro Manila, Philippines","(14.6334884, 121.0416529, 0.0)",14.6334884,121.0416529,0.0
424,"Quezon Ave, Sct, Reyes EB, Philippines","Sct. Reyes St, Quezon City, Metro Manila, Philippines","(14.6312397, 121.0256941, 0.0)",14.6312397,121.0256941,0.0
425,"EDSA J. Vargas NB, Philippines","EDSA, corner Doña Julia Vargas Ave, Ortigas Center, Mandaluyong, 1555 Metro Manila, Philippines","(14.5846851, 121.0573023, 0.0)",14.5846851,121.0573023,0.0
426,"EDSA Orense NB, Philippines","United Nations Ave, Ermita, Manila, 1000 Metro Manila, Philippines","(14.5814595, 120.9836439, 0.0)",14.5814595,120.9836439,0.0
428,"EDSA Santolan NB, Philippines","Mayaman, Diliman, Lungsod Quezon, Kalakhang Maynila, Philippines","(14.6464689, 121.0521788, 0.0)",14.6464689,121.0521788,0.0
429,"EDSA Guadalupe NB, Philippines","2195 Epifanio de los Santos Ave, Makati, 1554 Metro Manila, Philippines","(14.5644828, 121.0451481, 0.0)",14.5644828,121.0451481,0.0
430,"EDSA Estrella SB, Philippines","Epifanio de los Santos Avenue & Estrella, Makati, Metro Manila, Philippines","(14.5599457, 121.0406986, 0.0)",14.5599457,121.0406986,0.0
433,"EDSA MRT North Ave. NB, Philippines","North Avenue, Bagong Pag-asa, Quezon City, Metro Manila, Philippines","(14.65217, 121.032333, 0.0)",14.65217,121.032333,0.0
437,"C5 Lanuza NB, Philippines","Lanuza, Surigao del Sur, Philippines","(9.1515977, 126.0132051, 0.0)",9.1515977,126.0132051,0.0
438,"EDSA Annapolis SB, Philippines","Unit 21 H LGF SM City Center, SM City North EDSA, North Avenue corner EDSA Lower Ground Floor Near the FoodCourt and SM Appliance, Bagong Pag-asa, Quezon City, 1105 Metro Manila, Philippines","(14.6566478, 121.0314804, 0.0)",14.6566478,121.0314804,0.0
439,"EDSA Magallanes Loading Bay SB, Philippines","Magallanes Station, Epifanio de los Santos Ave, Makati, Metro Manila, Philippines","(14.5420229, 121.0194852, 0.0)",14.5420229,121.0194852,0.0
440,"EDSA SM Light Mall NB, Philippines","SM Light Mall, Madison, Mandaluyong, 1560 Metro Manila, Philippines","(14.5743146, 121.0492401, 0.0)",14.5743146,121.0492401,0.0
442,"EDSA Farmers svc. rd. NB, Philippines","General Roxas Ave, Cubao, Quezon City, Metro Manila, Philippines","(14.6203702, 121.0517443, 0.0)",14.6203702,121.0517443,0.0
443,"C5 J. Vargas SB, Philippines","C-5, Metro Manila, Philippines","(14.5588814, 121.0649006, 0.0)",14.5588814,121.0649006,0.0
446,"C5 J. Vargas SB, Philippines","C-5, Metro Manila, Philippines","(14.5588814, 121.0649006, 0.0)",14.5588814,121.0649006,0.0
447,"C5 Katipunan Ave. Labor Hospital NB, Philippines","C-5 & Katipunan Ave, Project 4, Quezon City, 1800 Metro Manila, Philippines","(14.61797, 121.0715627, 0.0)",14.61797,121.0715627,0.0
449,"C5 After Tiendesitas NB, Philippines","C-5 Las Fiestas, Pasig, Metro Manila, Philippines","(14.5860655, 121.0779872, 0.0)",14.5860655,121.0779872,0.0
450,"EDSA Pioneer NB, Philippines","Pioneer St. cor EDSA, Mandaluyong, 1554 Metro Manila, Philippines","(14.5725722, 121.0483433, 0.0)",14.5725722,121.0483433,0.0
451,"EDSA Taft SB, Philippines","Taft Avenue, Epifanio de los Santos Ave, Pasay, 1300 Metro Manila, Philippines","(14.537669, 121.0021747, 0.0)",14.537669,121.0021747,0.0
452,"EDSA Taft SB, Philippines","Taft Avenue, Epifanio de los Santos Ave, Pasay, 1300 Metro Manila, Philippines","(14.537669, 121.0021747, 0.0)",14.537669,121.0021747,0.0
453,"Timog cor. Samar St., Philippines","Room 307 & 308 Cedar Executive Building Ii, Timog Corner Scout Tobias Street, Quezon City 1100, Diliman, Quezon City, Metro Manila, Philippines","(14.633649, 121.030698, 0.0)",14.633649,121.030698,0.0
454,"C5 Kalayaan NB, Philippines","C-5 & Kalayaan Ave, Makati, Metro Manila, Philippines","(14.5564054, 121.0631174, 0.0)",14.5564054,121.0631174,0.0
455,"EDSA  Evangelista SB, Philippines","Edsa Cor Evangelista Bangkal, Makati, Metro Manila, Philippines","(14.5392943, 121.0121738, 0.0)",14.5392943,121.0121738,0.0
456,"EDSA Santolan UTS SB, Philippines","Santolan-annapolis, Epifanio de los Santos Ave, San Juan, 1502 Kalakhang Maynila, Philippines","(14.607331, 121.05643, 0.0)",14.607331,121.05643,0.0
457,"EDSA New York SB, Philippines",,,,,
458,"Ortigas ADB EB, Philippines","25 ADB Ave, Ortigas Center, Pasig, 1600 Metro Manila, Philippines","(14.5858469, 121.0601578, 0.0)",14.5858469,121.0601578,0.0
459,"Camp Atienza WB, Philippines","FVR Rd, Bagumbayan, Quezon City, 1800 Metro Manila, Philippines","(14.616179, 121.0775757, 0.0)",14.616179,121.0775757,0.0
460,"EDSA Timog Flyover SB, Philippines","GMA International, 10F GMA Network Center, EDSA cor, Timog Ave, Diliman, Quezon City, 1103 Metro Manila, Philippines","(14.6332902, 121.0438737, 0.0)",14.6332902,121.0438737,0.0
461,"C5 Lanuza WB, Philippines","Lanuza, Surigao del Sur, Philippines","(9.1515977, 126.0132051, 0.0)",9.1515977,126.0132051,0.0
463,"C5 Bagong ilog SB, Philippines","C-5, Pasig, Metro Manila, Philippines","(14.5643396, 121.0696684, 0.0)",14.5643396,121.0696684,0.0
464,"EDSA Ayala NB, Philippines","Ayala, Station Dr, Makati, Metro Manila, Philippines","(14.5491906, 121.0279696, 0.0)",14.5491906,121.0279696,0.0
466,"EDSA Quezon Ave. NB, Philippines","Quezon Avenue, 1103 Epifanio de los Santos Ave, Diliman, Quezon City, Metro Manila, Philippines","(14.6427595, 121.0385078, 0.0)",14.6427595,121.0385078,0.0
467,"EDSA Quezon Ave before Flyover NB, Philippines","Quezon Avenue, 1103 Epifanio de los Santos Ave, Diliman, Quezon City, Metro Manila, Philippines","(14.6427595, 121.0385078, 0.0)",14.6427595,121.0385078,0.0
471,"11th Jamboree Timog Congressional WB, Philippines","Timog Ave, Diliman, Quezon City, Metro Manila, Philippines","(14.6348409, 121.0353466, 0.0)",14.6348409,121.0353466,0.0
472,"Ortigas Corinthians Gate 1 WB, Philippines","Pan-Philippine Hwy, Ortigas Center, Pasig, Metro Manila, Philippines","(14.5847407, 121.0558047, 0.0)",14.5847407,121.0558047,0.0
474,"C5 Kalayaan NB, Philippines","C-5 & Kalayaan Ave, Makati, Metro Manila, Philippines","(14.5564054, 121.0631174, 0.0)",14.5564054,121.0631174,0.0
477,"EDSA Landmark NB, Philippines","EDSA corner Trimona Mall, 173 Epifanio de los Santos Ave, Bagong Pag-asa, Quezon City, 1105 Metro Manila, Philippines","(14.6534634, 121.0323982, 0.0)",14.6534634,121.0323982,0.0
478,"Commonwealth Meralco EB, Philippines","Capitol Estate 2 , Commonwealth Avenue, University of the Philippines , 1101 Quezon City , Metro Manila, Diliman, Quezon City, Metro Manila, Philippines","(14.661648, 121.065867, 0.0)",14.661648,121.065867,0.0
479,"J. Vargas Megamall WB, Philippines","EDSA, corner Doña Julia Vargas Ave, Ortigas Center, Mandaluyong, 1555 Metro Manila, Philippines","(14.5846851, 121.0573023, 0.0)",14.5846851,121.0573023,0.0
482,"Banawe Mauban Intersection, Philippines","Banawe Street & Mauban, Quezon City, Metro Manila, Philippines","(14.6416031, 121.0005084, 0.0)",14.6416031,121.0005084,0.0
483,"C5 Kalayaan NB, Philippines","C-5 & Kalayaan Ave, Makati, Metro Manila, Philippines","(14.5564054, 121.0631174, 0.0)",14.5564054,121.0631174,0.0
486,"EDSA Starmall svc. rd. SB, Philippines","Harvard, Mandaluyong, Metro Manila, Philippines","(14.5822941, 121.0529863, 0.0)",14.5822941,121.0529863,0.0
488,"Katipunan F/O NB, Philippines",Philippines,"(12.879721, 121.774017, 0.0)",12.879721,121.774017,0.0
489,"EDSA svc. rd. Santolan SB, Philippines","37 EDSA corner Boni Avenue, 37 Epifanio de los Santos Ave, Mandaluyong, 1550 Metro Manila, Philippines","(14.5721142, 121.0468128, 0.0)",14.5721142,121.0468128,0.0
490,"Araneta SM Centerpoint SB, Philippines","SM City Sta Mesa, Aurora Blvd, Quezon City, Metro Manila, Philippines","(14.6043613, 121.018829, 0.0)",14.6043613,121.018829,0.0
492,"EDSA Landmark NB, Philippines","EDSA corner Trimona Mall, 173 Epifanio de los Santos Ave, Bagong Pag-asa, Quezon City, 1105 Metro Manila, Philippines","(14.6534634, 121.0323982, 0.0)",14.6534634,121.0323982,0.0
493,"EDSA Ortigas EB, Philippines","1 Garden Way, Ortigas Center, Mandaluyong, 1550 Metro Manila, Philippines","(14.5813906, 121.0570799, 0.0)",14.5813906,121.0570799,0.0
495,"C5 Kalayaan NB, Philippines","C-5 & Kalayaan Ave, Makati, Metro Manila, Philippines","(14.5564054, 121.0631174, 0.0)",14.5564054,121.0631174,0.0
497,"Queon Ave. Pantranco EB, Philippines","Quezon Avenue, 1103 Epifanio de los Santos Ave, Diliman, Quezon City, Metro Manila, Philippines","(14.6427595, 121.0385078, 0.0)",14.6427595,121.0385078,0.0
498,"C5 Eastwood Proper, Philippines","Eulogio Rodriguez Jr. Ave, Bagumbayan, Quezon City, 1800 Metro Manila, Philippines","(14.6096463, 121.0796001, 0.0)",14.6096463,121.0796001,0.0
499," Ramon Magsaysay Blvd. Valencia EB, Philippines","3614 R-6, Santa Mesa, Manila, 1016 Metro Manila, Philippines","(14.6014324, 121.0108943, 0.0)",14.6014324,121.0108943,0.0
500,"EDSA Guadalupe NB, Philippines","2195 Epifanio de los Santos Ave, Makati, 1554 Metro Manila, Philippines","(14.5644828, 121.0451481, 0.0)",14.5644828,121.0451481,0.0
501,"EDSA Monte NB, Philippines","2258 Chino Roces Avenue cor, EDSA, Makati City Manila 1229, Makati, 1229 Metro Manila, Philippines","(14.540944, 121.018967, 0.0)",14.540944,121.018967,0.0
505,"EDSA P. Tuazon after Tunnel NB, Philippines","Epifanio de los Santos Ave, Metro Manila, Philippines","(14.5766435, 121.0501616, 0.0)",14.5766435,121.0501616,0.0
507,"Quezon Ave. Araneta WB, Philippines","Gateway Tower, Cubao, Quezon City, 0810 Metro Manila, Philippines","(14.620756, 121.0529557, 0.0)",14.620756,121.0529557,0.0
509,"Ortigas Meralco WB, Philippines","1600 Ortigas Ave, Pasig, Metro Manila, Philippines","(14.5895342, 121.0637472, 0.0)",14.5895342,121.0637472,0.0
511,"C5 Markt Market NB, Philippines","C-5, Metro Manila, Philippines","(14.5588814, 121.0649006, 0.0)",14.5588814,121.0649006,0.0
512,"Commonwealth Tandang Sora F/O EB, Philippines","LGF Berkeley Square Building, Commonwealth-Tandang Sora Overpass, Diliman, Quezon City, 1116 Metro Manila, Philippines","(14.6630443, 121.06852, 0.0)",14.6630443,121.06852,0.0
513,"EDSA Quezon Ave. F/O NB, Philippines","Edsa Corner Quezon Avenue, Quezon City, 1104 Metro Manila, Philippines","(14.6447149, 121.0367449, 0.0)",14.6447149,121.0367449,0.0
515,"Fajardo St. Extremadura EB, Philippines","Fajardo St & Extremadura St, Sampaloc, Manila, 1008 Metro Manila, Philippines","(14.6069508, 120.9942896, 0.0)",14.6069508,120.9942896,0.0
516,"EDSA Reliance NB, Philippines","EDSA cor. Reliance St., Brgy, Mandaluyong, Metro Manila, Philippines","(14.5767528, 121.0517717, 0.0)",14.5767528,121.0517717,0.0
517,"EDSA Madison Bonbi NB, Philippines","United Nations Ave, Ermita, Manila, 1000 Metro Manila, Philippines","(14.5814595, 120.9836439, 0.0)",14.5814595,120.9836439,0.0
518,"Commonwealth Winston Eb, Philippines",,,,,
520,"C5 Libis SB, Philippines","C-5, Metro Manila, Philippines","(14.5588814, 121.0649006, 0.0)",14.5588814,121.0649006,0.0
521,"Quezon Ave. Eliptical EB, Philippines","Quezon Memorial Circle, Elliptical Rd, Diliman, Quezon City, Metro Manila, Philippines","(14.6516074, 121.0493183, 0.0)",14.6516074,121.0493183,0.0
522,"Quezon Ave. Eliptical EB, Philippines","Quezon Memorial Circle, Elliptical Rd, Diliman, Quezon City, Metro Manila, Philippines","(14.6516074, 121.0493183, 0.0)",14.6516074,121.0493183,0.0
523,"EDSA V.V . Soliven SB, Philippines","San Juan, Metro Manila, Philippines","(14.6052647, 121.0573573, 0.0)",14.6052647,121.0573573,0.0
524,"Aurora Blvd. Araneta SM Centerpoint NB, Philippines","SM City Sta Mesa, Aurora Blvd, Quezon City, Metro Manila, Philippines","(14.6043613, 121.018829, 0.0)",14.6043613,121.018829,0.0
525,"EDSA Timog before Intersection SB, Philippines","GMA International, 10F GMA Network Center, EDSA cor, Timog Ave, Diliman, Quezon City, 1103 Metro Manila, Philippines","(14.6332902, 121.0438737, 0.0)",14.6332902,121.0438737,0.0
526,"EDSA Tramo F/O  SB, Philippines","Epifanio de los Santos Avenue & Tramo, Pasay, Metro Manila, Philippines","(14.5379567, 121.0032139, 0.0)",14.5379567,121.0032139,0.0
527,"EDSA kamuning SB, Philippines","GMA Kamuning Station, 32 Samar Ave, Diliman, Quezon City, 1103 Metro Manila, Philippines","(14.6352168, 121.0433426, 0.0)",14.6352168,121.0433426,0.0
529,"C5 Julia VargasNB, Philippines","C-5 & Doña Julia Vargas Ave, Pasig, Metro Manila, Philippines","(14.5827086, 121.0769766, 0.0)",14.5827086,121.0769766,0.0
530,"C5 Katipunan UP Town Center NB, Philippines","249, 216 Katipunan Ave, Diliman, Quezon City, 1800 Metro Manila, Philippines","(14.6507422, 121.0752145, 0.0)",14.6507422,121.0752145,0.0
531,"C5 Libis F/O SB, Philippines","C-5, Metro Manila, Philippines","(14.5588814, 121.0649006, 0.0)",14.5588814,121.0649006,0.0
532,"Tandang Sora Congressional SB, Philippines","St. Charbel Executive Village, Mindanao Avenue, Tandang Sora, Lungsod Quezon, Kalakhang Maynila, Philippines","(14.680496, 121.0317666, 0.0)",14.680496,121.0317666,0.0
533,"Ramon Magsaysay Boulevard SB, Philippines","Pureza, 626 Sta Mesa Ramon Magsaysay Boulevard, Santa Mesa, Manila City, 1016 Metro Manila, Philippines","(14.601747, 121.005174, 0.0)",14.601747,121.005174,0.0
534,"EDSA Megamall Service Road NB, Philippines","EDSA, corner Doña Julia Vargas Ave, Ortigas Center, Mandaluyong, 1555 Metro Manila, Philippines","(14.5846851, 121.0573023, 0.0)",14.5846851,121.0573023,0.0
535,"EDSA Ortigas Intersection, Philippines","Ortigas, Mandaluyong, Metro Manila, Philippines","(14.5878494, 121.0567228, 0.0)",14.5878494,121.0567228,0.0
536,"EDSA Ermin Garcia SB, Philippines","159 Ermin Garcia St, Cubao, Quezon City, 1101 Metro Manila, Philippines","(14.6273742, 121.0474055, 0.0)",14.6273742,121.0474055,0.0
540,"EDSA Buendia  SB, Philippines","G/F SM Cyber Two Bldg., EDSA Buendia, Makati, 1226 Metro Manila, Philippines","(14.5561598, 121.0342554, 0.0)",14.5561598,121.0342554,0.0
541,"EDSA Buendia  NB, Philippines","United Nations Ave, Ermita, Manila, 1000 Metro Manila, Philippines","(14.5814595, 120.9836439, 0.0)",14.5814595,120.9836439,0.0
542,"EDSA New York  SB, Philippines",,,,,
545,"EDSA Ortigas POEA  SB, Philippines","Ortigas Avenue, Blas F. Ople Building, corner Epifanio de los Santos Ave, Mandaluyong, Metro Manila, Philippines","(14.5930233, 121.0578696, 0.0)",14.5930233,121.0578696,0.0
547,"EDSA Pioneer NB, Philippines","Pioneer St. cor EDSA, Mandaluyong, 1554 Metro Manila, Philippines","(14.5725722, 121.0483433, 0.0)",14.5725722,121.0483433,0.0
549,"E. Rodriguez Ave. Araneta WB, Philippines","2nd Flr. Rear Ablaza Bldg. E.Rodriguez Sr. Ave, corner Gregorio Araneta Ave, Quezon City, Metro Manila, Philippines","(14.618835, 121.014309, 0.0)",14.618835,121.014309,0.0
550,"Quezon Ave. Delta Intersection EB, Philippines","Quezon City, Metro Manila, Philippines","(14.6760413, 121.0437003, 0.0)",14.6760413,121.0437003,0.0
553,"EDSA Buendia SB U-turn s lot, Philippines","Epifanio de los Santos Ave & Buendia Ave, Makati, Metro Manila, Philippines","(14.5548517, 121.0346733, 0.0)",14.5548517,121.0346733,0.0
555,"C5 Ortigas IPI EB, Philippines","C-5, Metro Manila, Philippines","(14.5588814, 121.0649006, 0.0)",14.5588814,121.0649006,0.0
557,"EDSA Boni SB, Philippines","Edsa corner, Boni Ave, Mandaluyong City, Mandaluyong, 1550 Metro Manila, Philippines","(14.5724682, 121.0470239, 0.0)",14.5724682,121.0470239,0.0
558,"Katipunan Ateneo NB, Philippines",,,,,
559,"EDSA kaingin NB, Philippines","Ortigas Ave, Ortigas Center, Quezon City, Metro Manila, Philippines","(14.5910279, 121.0603914, 0.0)",14.5910279,121.0603914,0.0
561,"EDSA Pasay Road NB, Philippines","F.B. Harrison St, Pasay, 1302 Metro Manila, Philippines","(14.543747, 120.99492, 0.0)",14.543747,120.99492,0.0
563,"EDSA Orense NB, Philippines","United Nations Ave, Ermita, Manila, 1000 Metro Manila, Philippines","(14.5814595, 120.9836439, 0.0)",14.5814595,120.9836439,0.0
565,"B. Serrano 10th Ave. WB, Philippines","26th Floor, One Global Place, 25th St, Taguig, 1634 Kalakhang Maynila, Philippines","(14.5483194, 121.0470468, 0.0)",14.5483194,121.0470468,0.0
567,"EDSA Pioneer NB, Philippines","Pioneer St. cor EDSA, Mandaluyong, 1554 Metro Manila, Philippines","(14.5725722, 121.0483433, 0.0)",14.5725722,121.0483433,0.0
568,"C5 Aurora Katipunan F/O SB, Philippines","Aurora Boulevard, corner Katipunan Avenue, Quezon City, 1100 Metro Manila, Philippines","(14.646836, 121.074719, 0.0)",14.646836,121.074719,0.0
569,"C5 Aurora Katipunan F/O SB, Philippines","Aurora Boulevard, corner Katipunan Avenue, Quezon City, 1100 Metro Manila, Philippines","(14.646836, 121.074719, 0.0)",14.646836,121.074719,0.0
570,"C5 Kalayaan split NB, Philippines","C-5 & Kalayaan Ave, Makati, Metro Manila, Philippines","(14.5564054, 121.0631174, 0.0)",14.5564054,121.0631174,0.0
572,"EDSA Magallanes  NB, Philippines","Ortigas Ave, Ortigas Center, Quezon City, Metro Manila, Philippines","(14.5910279, 121.0603914, 0.0)",14.5910279,121.0603914,0.0
573,"EDSA Magallanes  NB, Philippines","Ortigas Ave, Ortigas Center, Quezon City, Metro Manila, Philippines","(14.5910279, 121.0603914, 0.0)",14.5910279,121.0603914,0.0
576,"Quezon Ave. Aberdeen WB, Philippines","1403 Quezon Ave, Quezon City, Metro Manila, Philippines","(14.6396711, 121.0291908, 0.0)",14.6396711,121.0291908,0.0
577,"C5 Aurora Katipunan  WB, Philippines","Aurora Boulevard, corner Katipunan Avenue, Quezon City, 1100 Metro Manila, Philippines","(14.646836, 121.074719, 0.0)",14.646836,121.074719,0.0
579,"Tandang Sora Commonwealth EB, Philippines","242 Tandang Sora Ave, Tandang Sora, Quezon City, Metro Manila, Philippines","(14.6764848, 121.0415683, 0.0)",14.6764848,121.0415683,0.0
580,"C5 Katipunan SB, Philippines","C-5 & Katipunan Ave, Project 4, Quezon City, 1800 Metro Manila, Philippines","(14.61797, 121.0715627, 0.0)",14.61797,121.0715627,0.0
581,"C5 Ortigas Transcom SB, Philippines","Filinvest Building, 167 Epifanio de los Santos Ave, Mandaluyong, Metro Manila, Philippines","(14.5893107, 121.0569351, 0.0)",14.5893107,121.0569351,0.0
582,"C5 Ortigas Transcom SB, Philippines","Filinvest Building, 167 Epifanio de los Santos Ave, Mandaluyong, Metro Manila, Philippines","(14.5893107, 121.0569351, 0.0)",14.5893107,121.0569351,0.0
583,"EDSA Aurora tunnel NB, Philippines","EDSA Aurora Blvd Tunnel, 655 Epifanio de los Santos Ave, Cubao, Quezon City, 1111 Metro Manila, Philippines","(14.6215316, 121.0501176, 0.0)",14.6215316,121.0501176,0.0
585,"North Ave. Mindanao Eb, Philippines","Mindanao Avenue & North Ave, Diliman, Quezon City, Metro Manila, Philippines","(14.654579, 121.0352321, 0.0)",14.654579,121.0352321,0.0
588,"EDSA Guadalupe in front of Jollibee NB, Philippines","Tan Hock Bldg. Edsa, Cor P.Burgos, St, Makati, Kalakhang Maynila, Philippines","(14.5652663, 121.0453941, 0.0)",14.5652663,121.0453941,0.0
589,"Villamor Rotonda going Merville EB, Philippines","Villamor, Pasay, Metro Manila, Philippines","(14.5268221, 121.0148742, 0.0)",14.5268221,121.0148742,0.0
591,"Katipunan Esteban Abada EB, Philippines","10 Esteban Abada St, Quezon City, Metro Manila, Philippines","(14.6329303, 121.073327, 0.0)",14.6329303,121.073327,0.0
592,"EDSA Magallanes F/O SB, Philippines","EDSA, corner Magallanes Avenue, Pasay City, 1300 Metro Manila, Philippines","(14.5389703, 121.0136577, 0.0)",14.5389703,121.0136577,0.0
593,"Mia Domestic Road SB, Philippines","Ninoy Aquino International Airport (MNL), Pasay, 1300 Metro Manila, Philippines","(14.5122739, 121.016508, 0.0)",14.5122739,121.016508,0.0
594,"Katipunan Aurora Blvd after F/O SB, Philippines","Katipunan, Aurora Blvd, Project 4, Quezon City, Metro Manila, Philippines","(14.6307723, 121.0727009, 0.0)",14.6307723,121.0727009,0.0
595,"EDSA Boni MRT NB, Philippines","Boni Ave, Mandaluyong, Metro Manila, Philippines","(14.5737139, 121.0481539, 0.0)",14.5737139,121.0481539,0.0
596,"Marcos Highway Tayug EB, Philippines","Marikina-Infanta Hwy, Marikina, 1801 Metro Manila, Philippines","(14.6259836, 121.0837404, 0.0)",14.6259836,121.0837404,0.0
597,"Marcos Highway Dela Paz EB, Philippines","Marikina-Infanta Hwy, Marikina, 1800 Metro Manila, Philippines","(14.6197227, 121.0933786, 0.0)",14.6197227,121.0933786,0.0
598,"Commonwealth Mindanao Ave. Intersection Eb, Philippines","Mindanao Avenue, Metro Manila, Philippines","(14.6803484, 121.0320143, 0.0)",14.6803484,121.0320143,0.0
600,"EDSA Guadalupe  before MRT NB, Philippines","Guadalupe, ext.cembo Guadalupe 1212, Guijo, Makati, Metro Manila, Philippines","(14.5667504, 121.0454767, 0.0)",14.5667504,121.0454767,0.0
603,"EDSA Buendia SB, Philippines","G/F SM Cyber Two Bldg., EDSA Buendia, Makati, 1226 Metro Manila, Philippines","(14.5561598, 121.0342554, 0.0)",14.5561598,121.0342554,0.0
604,"EDSA  Pioneer NB., Philippines","Pioneer St. cor EDSA, Mandaluyong, 1554 Metro Manila, Philippines","(14.5725722, 121.0483433, 0.0)",14.5725722,121.0483433,0.0
605,"EDSA Orense SB., Philippines","Orense, Makati, Metro Manila, Philippines","(14.5613611, 121.0436189, 0.0)",14.5613611,121.0436189,0.0
607,"EDSA Rockwell WB, Philippines","Ground Floor, Vertis North Mall, EDSA cor, North Ave, Bagong Pag-asa, Quezon City, 1104 Metro Manila, Philippines","(14.6564091, 121.0337515, 0.0)",14.6564091,121.0337515,0.0
610,"EDSA Guadix NB, Philippines","Ortigas Ave, Ortigas Center, Quezon City, Metro Manila, Philippines","(14.5910279, 121.0603914, 0.0)",14.5910279,121.0603914,0.0
611,"EDSA Ortigas F/O SB, Philippines","Local 336-338 Edsa corner, Epifanio de los Santos Avenue, Shaw Boulevard, Ortigas Center, Mandaluyong, 1552 Metro Manila, Philippines","(14.5817664, 121.0548896, 0.0)",14.5817664,121.0548896,0.0
612,"ADB Sapphire WB, Philippines","26th Floor, One Global Place, 25th St, Taguig, 1634 Kalakhang Maynila, Philippines","(14.5483194, 121.0470468, 0.0)",14.5483194,121.0470468,0.0
613,"EDSA Muñoz NB, Philippines","8001 Epifanio de los Santos Ave, Project 7, Quezon City, 1105 Metro Manila, Philippines","(14.6571184, 121.0210055, 0.0)",14.6571184,121.0210055,0.0
614,"Mindanao Sauyo SB, Philippines","northbound side after Vibe Gastro Hub, 125 Mindanao Avenue, Novaliches, Quezon City, 1116 Metro Manila, Philippines","(14.686496, 121.031852, 0.0)",14.686496,121.031852,0.0
616,"Roxas Blvd. Baclaran NB, Philippines","Redemptorist Road, Baclaran, Parañaque, Kalakhang Maynila, Philippines","(14.5322207, 120.9941435, 0.0)",14.5322207,120.9941435,0.0
617,"Commonwealth Litex EB, Philippines","Al Commonwea, Lower Jasmin Basketball Court, Quezon City, Metro Manila, Philippines","(14.7035534, 121.0895401, 0.0)",14.7035534,121.0895401,0.0
618,"Commonwealth Feria SB, Philippines","8 Feria Road, Commonwealth Avenue, Old Balara, Matandang Balara, Quezon City, 1121 Metro Manila, Philippines","(14.672165, 121.080987, 0.0)",14.672165,121.080987,0.0
621,"EDSA SM North NB, Philippines","Unit 21 H LGF SM City Center, SM City North EDSA, North Avenue corner EDSA Lower Ground Floor Near the FoodCourt and SM Appliance, Bagong Pag-asa, Quezon City, 1105 Metro Manila, Philippines","(14.6566478, 121.0314804, 0.0)",14.6566478,121.0314804,0.0
623,"Valencia Granada WB, Philippines",,,,,
624,"Valencia Granada WB, Philippines",,,,,
625,"C5 Ortigas SB, Philippines","C-5, Metro Manila, Philippines","(14.5588814, 121.0649006, 0.0)",14.5588814,121.0649006,0.0
626,"C5 Ortigas SB, Philippines","C-5, Metro Manila, Philippines","(14.5588814, 121.0649006, 0.0)",14.5588814,121.0649006,0.0
627,"EDSA Santolan NB, Philippines","Mayaman, Diliman, Lungsod Quezon, Kalakhang Maynila, Philippines","(14.6464689, 121.0521788, 0.0)",14.6464689,121.0521788,0.0
628,"EDSA Paramount SB, Philippines","Unit 21 H LGF SM City Center, SM City North EDSA, North Avenue corner EDSA Lower Ground Floor Near the FoodCourt and SM Appliance, Bagong Pag-asa, Quezon City, 1105 Metro Manila, Philippines","(14.6566478, 121.0314804, 0.0)",14.6566478,121.0314804,0.0
629,"EDSA Ayala Tunnel NB, Philippines","Edsa-Ayala, Makati, Metro Manila, Philippines","(14.549372, 121.029081, 0.0)",14.549372,121.029081,0.0
632,"EDSA Reliance NB, Philippines","EDSA cor. Reliance St., Brgy, Mandaluyong, Metro Manila, Philippines","(14.5767528, 121.0517717, 0.0)",14.5767528,121.0517717,0.0
636,"MIA Coastal NB, Philippines",,,,,
639,"Quezon Ave. Elliptical WB, Philippines",,,,,
641,"C5 Ortigas NB, Philippines","C-5, Metro Manila, Philippines","(14.5588814, 121.0649006, 0.0)",14.5588814,121.0649006,0.0
643,"EDSA Santolan MRT NB, Philippines","Santolan-Annapolis, Epifanio de los Santos Ave, Quezon City, Metro Manila, Philippines","(14.6078175, 121.0564144, 0.0)",14.6078175,121.0564144,0.0
644,"Ortigas Emerald EB, Philippines","22 Emerald Ave, San Antonio, Pasig, Metro Manila, Philippines","(14.5855824, 121.0614136, 0.0)",14.5855824,121.0614136,0.0
647,"C5 Libis after F/O SB, Philippines","C-5, Metro Manila, Philippines","(14.5588814, 121.0649006, 0.0)",14.5588814,121.0649006,0.0
648,"EDSA Buendia MRT SB, Philippines","Buendia station, Makati, Metro Manila, Philippines","(14.5544216, 121.0343494, 0.0)",14.5544216,121.0343494,0.0
650,"EDSA P. Tuazon tunnel SB, Philippines","EDSA Aurora Blvd Tunnel, 655 Epifanio de los Santos Ave, Cubao, Quezon City, 1111 Metro Manila, Philippines","(14.6215316, 121.0501176, 0.0)",14.6215316,121.0501176,0.0
651,"roxas Blvd. Ocampo NB, Philippines","CCP Complex, Roxas Blvd, Pasay, 1300 Metro Manila, Philippines","(14.558412, 120.985911, 0.0)",14.558412,120.985911,0.0
652,"C5 Lanuza NB, Philippines","Lanuza, Surigao del Sur, Philippines","(9.1515977, 126.0132051, 0.0)",9.1515977,126.0132051,0.0
654,"EDSA Boni SB, Philippines","Edsa corner, Boni Ave, Mandaluyong City, Mandaluyong, 1550 Metro Manila, Philippines","(14.5724682, 121.0470239, 0.0)",14.5724682,121.0470239,0.0
655,"EDSA Magallanes SB, Philippines","Magallanes Station, Epifanio de los Santos Ave, Makati, Metro Manila, Philippines","(14.5420229, 121.0194852, 0.0)",14.5420229,121.0194852,0.0
656,"C5 Libis NB, Philippines","C-5, Metro Manila, Philippines","(14.5588814, 121.0649006, 0.0)",14.5588814,121.0649006,0.0
657,"EDSA Kalayaan NB, Philippines","Kalayaan Flyover, Metro Manila, Philippines","(14.5573124, 121.0395546, 0.0)",14.5573124,121.0395546,0.0
658,"EDSA Central NB, Philippines","United Nations Ave, Ermita, Manila, 1000 Metro Manila, Philippines","(14.5814595, 120.9836439, 0.0)",14.5814595,120.9836439,0.0
659,"EDSA Main ave. NB, Philippines","37 EDSA corner Boni Avenue, 37 Epifanio de los Santos Ave, Mandaluyong, 1550 Metro Manila, Philippines","(14.5721142, 121.0468128, 0.0)",14.5721142,121.0468128,0.0
660,"EDSA Guadalupe NB, Philippines","2195 Epifanio de los Santos Ave, Makati, 1554 Metro Manila, Philippines","(14.5644828, 121.0451481, 0.0)",14.5644828,121.0451481,0.0
661,"C5 Libis NB, Philippines","C-5, Metro Manila, Philippines","(14.5588814, 121.0649006, 0.0)",14.5588814,121.0649006,0.0
662,"EDSA Trinoma NB, Philippines","Unit 21 H LGF SM City Center, SM City North EDSA, North Avenue corner EDSA Lower Ground Floor Near the FoodCourt and SM Appliance, Bagong Pag-asa, Quezon City, 1105 Metro Manila, Philippines","(14.6566478, 121.0314804, 0.0)",14.6566478,121.0314804,0.0
663,"EDSA Buendia SB, Philippines","G/F SM Cyber Two Bldg., EDSA Buendia, Makati, 1226 Metro Manila, Philippines","(14.5561598, 121.0342554, 0.0)",14.5561598,121.0342554,0.0
667,"C5 Katipunan U.P town SB, Philippines","249, 216 Katipunan Ave, Diliman, Quezon City, 1800 Metro Manila, Philippines","(14.6507422, 121.0752145, 0.0)",14.6507422,121.0752145,0.0
669,"EDSA Kamuning F/O SB, Philippines","GMA Kamuning Station, 32 Samar Ave, Diliman, Quezon City, 1103 Metro Manila, Philippines","(14.6352168, 121.0433426, 0.0)",14.6352168,121.0433426,0.0
670,"EDSA SM North NB, Philippines","Unit 21 H LGF SM City Center, SM City North EDSA, North Avenue corner EDSA Lower Ground Floor Near the FoodCourt and SM Appliance, Bagong Pag-asa, Quezon City, 1105 Metro Manila, Philippines","(14.6566478, 121.0314804, 0.0)",14.6566478,121.0314804,0.0
671,"EDSA  before Kalayaan NB, Philippines","Epifanio de los Santos Ave, Metro Manila, Philippines","(14.5766435, 121.0501616, 0.0)",14.5766435,121.0501616,0.0
672," EDSA Taft Rotonda NB, Philippines","Taft Ave, Pasay, 1300 Metro Manila, Philippines","(14.5385754, 121.0006372, 0.0)",14.5385754,121.0006372,0.0
673,"EDSA Ayala Intersection NB, Philippines","Ayala, Station Dr, Makati, Metro Manila, Philippines","(14.5491906, 121.0279696, 0.0)",14.5491906,121.0279696,0.0
674,"EDSA Ayala Tunnel NB, Philippines","Edsa-Ayala, Makati, Metro Manila, Philippines","(14.549372, 121.029081, 0.0)",14.549372,121.029081,0.0
675,"Marcos Highway Bridge SM Marikina WB, Philippines","Marikina-Infanta Hwy, Marikina, 1801 Metro Manila, Philippines","(14.6259836, 121.0837404, 0.0)",14.6259836,121.0837404,0.0
676,"EDSA Ayala NB, Philippines","Ayala, Station Dr, Makati, Metro Manila, Philippines","(14.5491906, 121.0279696, 0.0)",14.5491906,121.0279696,0.0
677,"Commonwealth Luzon Puregold WB, Philippines","South Fairview, Commonwealth Ave, Novaliches, Quezon City, 1121 Metro Manila, Philippines","(14.7043532, 121.0801697, 0.0)",14.7043532,121.0801697,0.0
678,"Quezon Ave., Sct. Borromeo EB, Philippines","Quezon Avenue, corner Scout Borromeo St, Diliman, Quezon City, Metro Manila, Philippines","(14.6396114, 121.030797, 0.0)",14.6396114,121.030797,0.0
679,"EDSA Kamuning SB, Philippines","GMA Kamuning Station, 32 Samar Ave, Diliman, Quezon City, 1103 Metro Manila, Philippines","(14.6352168, 121.0433426, 0.0)",14.6352168,121.0433426,0.0
680," EDSA  Main Ave. NB, Philippines","37 EDSA corner Boni Avenue, 37 Epifanio de los Santos Ave, Mandaluyong, 1550 Metro Manila, Philippines","(14.5721142, 121.0468128, 0.0)",14.5721142,121.0468128,0.0
685,"Marcos Highway Santolan EB, Philippines","Santolan MRT-2 Station, Marikina-Infanta Hwy, Pasig, 1610 Metro Manila, Philippines","(14.622095, 121.0859805, 0.0)",14.622095,121.0859805,0.0
686,"Paseo De Magallanes SB, Philippines","Santiago St Santiago St, Cor San Antonio, St, Makati, 1232 Metro Manila, Philippines","(14.536021, 121.018593, 0.0)",14.536021,121.018593,0.0
687,"East service road PNR NB, Philippines","PNR FTI Station, E Service Rd, Taguig, 1630 Metro Manila, Philippines","(14.5062836, 121.035665, 0.0)",14.5062836,121.035665,0.0
689,"EDSA Trinoma NB, Philippines","Unit 21 H LGF SM City Center, SM City North EDSA, North Avenue corner EDSA Lower Ground Floor Near the FoodCourt and SM Appliance, Bagong Pag-asa, Quezon City, 1105 Metro Manila, Philippines","(14.6566478, 121.0314804, 0.0)",14.6566478,121.0314804,0.0
692,"EDSA Trinoma UTS SB, Philippines","Unit 21 H LGF SM City Center, SM City North EDSA, North Avenue corner EDSA Lower Ground Floor Near the FoodCourt and SM Appliance, Bagong Pag-asa, Quezon City, 1105 Metro Manila, Philippines","(14.6566478, 121.0314804, 0.0)",14.6566478,121.0314804,0.0
693,"Mindanao North Ave SB, Philippines","Mindanao, Philippines","(8.496129999999999, 123.3034062, 0.0)",8.496129999999999,123.3034062,0.0
694,"Mindanao North Ave. SB, Philippines","Mindanao, Philippines","(8.496129999999999, 123.3034062, 0.0)",8.496129999999999,123.3034062,0.0
696," EDSA MRT Boni  SB, Philippines","Boni Ave, Mandaluyong, Metro Manila, Philippines","(14.5737139, 121.0481539, 0.0)",14.5737139,121.0481539,0.0
697,"EDSA Timog SB, Philippines","GMA International, 10F GMA Network Center, EDSA cor, Timog Ave, Diliman, Quezon City, 1103 Metro Manila, Philippines","(14.6332902, 121.0438737, 0.0)",14.6332902,121.0438737,0.0
700,"EDSA Central NB, Philippines","United Nations Ave, Ermita, Manila, 1000 Metro Manila, Philippines","(14.5814595, 120.9836439, 0.0)",14.5814595,120.9836439,0.0
701,"EDSA Monte NB, Philippines","2258 Chino Roces Avenue cor, EDSA, Makati City Manila 1229, Makati, 1229 Metro Manila, Philippines","(14.540944, 121.018967, 0.0)",14.540944,121.018967,0.0
705,"C5 Katipunan Ateneo NB, Philippines","Katipunan Ave, Quezon City, 1108 Metro Manila, Philippines","(14.6398614, 121.0784939, 0.0)",14.6398614,121.0784939,0.0
706,"C5 Julia Vargas SB, Philippines","Shell Gas Station, C5 Road corner, Doña Julia Vargas Ave, Pasig, Metro Manila, Philippines","(14.5832868, 121.0745847, 0.0)",14.5832868,121.0745847,0.0
707,"EDSA-Monte SB, Philippines","Monte De Piedad, Southbound, Epifanio de los Santos Ave, Lungsod Quezon, Kalakhang Maynila, Philippines","(14.623738, 121.048881, 0.0)",14.623738,121.048881,0.0
708,"EDSA Quezon Ave. Tunnel WB, Philippines","SM North EDSA Annex, SM City North SM City North EDSA Annex 1 Tunnel, Bago Bantay, Quezon City, 1105 Metro Manila, Philippines","(14.656757, 121.0285534, 0.0)",14.656757,121.0285534,0.0
711,"Tandang Sora Commonwealth F/O WB, Philippines","Commonwealth Ave, Quezon City, Metro Manila, Philippines","(14.7064314, 121.0672109, 0.0)",14.7064314,121.0672109,0.0
712,"Commonwealth Holy Spirit Drive WB F/O, Philippines","Novaliches, Quezon City, Metro Manila, Philippines","(14.681537, 121.079228, 0.0)",14.681537,121.079228,0.0
713,"C5 Calle Industria SB, Philippines","E Rodriguez Jr Avenue, cor Calle Industria, Brgy Bagumbayan, Quezon City, 1110 Metro Manila, Philippines","(14.6056052, 121.0793967, 0.0)",14.6056052,121.0793967,0.0
715,"Roxas Blvd. P.Ocampo SB, Philippines","221 Roxas Blvd, Malate, Manila, 1004 Metro Manila, Philippines","(14.5596781, 120.9880596, 0.0)",14.5596781,120.9880596,0.0
716,"EDSA Malibay SB, Philippines","Taft Ave, Pasay, 1300 Metro Manila, Philippines","(14.5385754, 121.0006372, 0.0)",14.5385754,121.0006372,0.0
717,"EDSA Santolan NB, Philippines","Mayaman, Diliman, Lungsod Quezon, Kalakhang Maynila, Philippines","(14.6464689, 121.0521788, 0.0)",14.6464689,121.0521788,0.0
718,"C5 Bagong Ilog F/O SB, Philippines","C-5, Pasig, Metro Manila, Philippines","(14.5643396, 121.0696684, 0.0)",14.5643396,121.0696684,0.0
719,"EDSA Ayala NB, Philippines","Ayala, Station Dr, Makati, Metro Manila, Philippines","(14.5491906, 121.0279696, 0.0)",14.5491906,121.0279696,0.0
720,"C5 Tiendesitas SB, Philippines","C-5 Las Fiestas, Pasig, Metro Manila, Philippines","(14.5860655, 121.0779872, 0.0)",14.5860655,121.0779872,0.0
726,"C5 SM Aura NB, Philippines","26th Street, Corner McKinley Pkwy, Taguig, 1630 Metro Manila, Philippines","(14.546748, 121.0545499, 0.0)",14.546748,121.0545499,0.0
727,"EDSA-Shaw tunnel NB, Philippines","Mayaman, Diliman, Lungsod Quezon, Kalakhang Maynila, Philippines","(14.6464689, 121.0521788, 0.0)",14.6464689,121.0521788,0.0
728,"EDSA-Magallanes Flyover NB, Philippines","Ortigas Ave, Ortigas Center, Quezon City, Metro Manila, Philippines","(14.5910279, 121.0603914, 0.0)",14.5910279,121.0603914,0.0
729,"EDSA-Buendia NB, Philippines","United Nations Ave, Ermita, Manila, 1000 Metro Manila, Philippines","(14.5814595, 120.9836439, 0.0)",14.5814595,120.9836439,0.0
730,"Taft Rotonda NB, Philippines","Taft Avenue, Epifanio de los Santos Ave, Pasay, 1300 Metro Manila, Philippines","(14.537669, 121.0021747, 0.0)",14.537669,121.0021747,0.0
731,"Ortigas Meralco WB, Philippines","1600 Ortigas Ave, Pasig, Metro Manila, Philippines","(14.5895342, 121.0637472, 0.0)",14.5895342,121.0637472,0.0
734,"EDSA E. Rodriguez NB, Philippines","1 Garden Way, Ortigas Center, Mandaluyong, 1550 Metro Manila, Philippines","(14.5813906, 121.0570799, 0.0)",14.5813906,121.0570799,0.0
735,"EDSA Orense SB, Philippines","Orense, Makati, Metro Manila, Philippines","(14.5613611, 121.0436189, 0.0)",14.5613611,121.0436189,0.0
736,"Commonwealth Philcoa WB, Philippines","G/F DBP Bldg., Commonwealth Ave., Diliman,, Diliman, Quezon City, Metro Manila, Philippines","(14.654577, 121.053247, 0.0)",14.654577,121.053247,0.0
737,"C5 Katipunan Miriam SB, Philippines","C-5 & Katipunan Ave, Project 4, Quezon City, 1800 Metro Manila, Philippines","(14.61797, 121.0715627, 0.0)",14.61797,121.0715627,0.0
738,"Commonwealth Central WB, Philippines","26th Floor, One Global Place, 25th St, Taguig, 1634 Kalakhang Maynila, Philippines","(14.5483194, 121.0470468, 0.0)",14.5483194,121.0470468,0.0
739,"EDSA Boni SB, Philippines","Edsa corner, Boni Ave, Mandaluyong City, Mandaluyong, 1550 Metro Manila, Philippines","(14.5724682, 121.0470239, 0.0)",14.5724682,121.0470239,0.0
740,"C5 Katipunan Old Balara SB, Philippines","C-5 & Katipunan Ave, Diliman, Quezon City, Metro Manila, Philippines","(14.6575638, 121.0742931, 0.0)",14.6575638,121.0742931,0.0
741,"EDSA Guadalupe SB, Philippines","Tan Hock Bldg. Edsa, Cor P.Burgos, St, Makati, Kalakhang Maynila, Philippines","(14.5652663, 121.0453941, 0.0)",14.5652663,121.0453941,0.0
742,"Ortigas La Salle EB, Philippines","Central House, La Salle Green Hills, 343 Ortigas Ave, Mandaluyong, 1550 Metro Manila, Philippines","(14.595608, 121.055666, 0.0)",14.595608,121.055666,0.0
743,"C5 Calle Industria NB, Philippines","C-5 & Calle Industria, Bagumbayan, Quezon City, Metro Manila, Philippines","(14.6054646, 121.0790443, 0.0)",14.6054646,121.0790443,0.0
744,"C5 Mckinley SB, Philippines","5th & 8th Floors Science Hub Tower 2 Campus Ave, McKinley Hill Dr, Taguig, 1634 Metro Manila, Philippines","(14.5318439, 121.0518011, 0.0)",14.5318439,121.0518011,0.0
745,"P. Burgos Finance road, Philippines","Padre Burgos Ave, Ermita, Manila, 1000 Metro Manila, Philippines","(14.5869356, 120.9812491, 0.0)",14.5869356,120.9812491,0.0
746,"C5 Libis SB, Philippines","C-5, Metro Manila, Philippines","(14.5588814, 121.0649006, 0.0)",14.5588814,121.0649006,0.0
747,"C5 Libis after F/O SB, Philippines","C-5, Metro Manila, Philippines","(14.5588814, 121.0649006, 0.0)",14.5588814,121.0649006,0.0
748,"C5 Libis after F/O SB, Philippines","C-5, Metro Manila, Philippines","(14.5588814, 121.0649006, 0.0)",14.5588814,121.0649006,0.0
749,"EDSA Ortigas before F/O NB, Philippines","Local 336-338 Edsa corner, Epifanio de los Santos Avenue, Shaw Boulevard, Ortigas Center, Mandaluyong, 1552 Metro Manila, Philippines","(14.5817664, 121.0548896, 0.0)",14.5817664,121.0548896,0.0
750,"Quezon Ave.-Banawe EB, Philippines","PH, 426 Banawe St, Santa Mesa Heights, Quezon City, 1114 Metro Manila, Philippines","(14.6238487, 121.0075423, 0.0)",14.6238487,121.0075423,0.0
751,"Katipunan B.Serrano Intersection NB, Philippines",,,,,
752,"C5-Libis SB, Philippines","C-5, Metro Manila, Philippines","(14.5588814, 121.0649006, 0.0)",14.5588814,121.0649006,0.0
754,"EDSA-Reliance NB, Philippines","EDSA cor. Reliance St., Brgy, Mandaluyong, Metro Manila, Philippines","(14.5767528, 121.0517717, 0.0)",14.5767528,121.0517717,0.0
755,"EDSA-Aurora Intersection SB, Philippines","EDSA Aurora Blvd Tunnel, 655 Epifanio de los Santos Ave, Cubao, Quezon City, 1111 Metro Manila, Philippines","(14.6215316, 121.0501176, 0.0)",14.6215316,121.0501176,0.0
756,"EDSA Reliance SB, Philippines","EDSA cor. Reliance St., Brgy, Mandaluyong, Metro Manila, Philippines","(14.5767528, 121.0517717, 0.0)",14.5767528,121.0517717,0.0
757,"C5 after Elevated-UTS NB, Philippines","C-5, Metro Manila, Philippines","(14.5588814, 121.0649006, 0.0)",14.5588814,121.0649006,0.0
758,"C5 Kalayaan SB, Philippines","144-A J.P. Rizal St, Makati, 1216 Metro Manila, Philippines","(14.5554718, 121.0648637, 0.0)",14.5554718,121.0648637,0.0
762,"C5 Eastwood SB, Philippines","Eulogio Rodriguez Jr. Ave, Bagumbayan, Quezon City, 1800 Metro Manila, Philippines","(14.6096463, 121.0796001, 0.0)",14.6096463,121.0796001,0.0
763,"EDSA Central NB, Philippines","United Nations Ave, Ermita, Manila, 1000 Metro Manila, Philippines","(14.5814595, 120.9836439, 0.0)",14.5814595,120.9836439,0.0
764,"Commonwealth Atherton WB, Philippines",,,,,
765,"EDSA Q. Ave WB, Philippines","Quezon Avenue, 1103 Epifanio de los Santos Ave, Diliman, Quezon City, Metro Manila, Philippines","(14.6427595, 121.0385078, 0.0)",14.6427595,121.0385078,0.0
766,"EDSA Guadalupe Bridge NB, Philippines","Epifanio de los Santos Ave, Metro Manila, Philippines","(14.5766435, 121.0501616, 0.0)",14.5766435,121.0501616,0.0
767,"EDSA Park Ave. SB, Philippines","Bondeal Philippines Incorporated, Park Avenue, Robinsons Galleria, Ortigas Avenue, Edsa Avenue Corner, Ortigas Center, Quezon City, 1600 Metro Manila, Philippines","(14.591412, 121.059462, 0.0)",14.591412,121.059462,0.0
768,"EDSA  MRT Santolan SB, Philippines","Santolan-Annapolis, Epifanio de los Santos Ave, Quezon City, Metro Manila, Philippines","(14.6078175, 121.0564144, 0.0)",14.6078175,121.0564144,0.0
769,"Roxas blvd. P. Ocampo NB, Philippines","Vicente Sotto St, Pasay, Metro Manila, Philippines","(14.5544983, 120.9830333, 0.0)",14.5544983,120.9830333,0.0
770,"Commonwealth Litex U-turn WB, Philippines","Al Commonwea, Lower Jasmin Basketball Court, Quezon City, Metro Manila, Philippines","(14.7035534, 121.0895401, 0.0)",14.7035534,121.0895401,0.0
771,"EDSA Guadix NB, Philippines","Ortigas Ave, Ortigas Center, Quezon City, Metro Manila, Philippines","(14.5910279, 121.0603914, 0.0)",14.5910279,121.0603914,0.0
774,"EDSA Quezon Ave. SB, Philippines","Quezon Avenue, 1103 Epifanio de los Santos Ave, Diliman, Quezon City, Metro Manila, Philippines","(14.6427595, 121.0385078, 0.0)",14.6427595,121.0385078,0.0
776,"EDSA-SM Megamall NB, Philippines","EDSA, corner Doña Julia Vargas Ave, Ortigas Center, Mandaluyong, 1555 Metro Manila, Philippines","(14.5846851, 121.0573023, 0.0)",14.5846851,121.0573023,0.0
777,"EDSA-Shaw Tunnel NB, Philippines","Mayaman, Diliman, Lungsod Quezon, Kalakhang Maynila, Philippines","(14.6464689, 121.0521788, 0.0)",14.6464689,121.0521788,0.0
783,"Sales Nichols EB, Philippines",,,,,
785,"Ortigas Robinson EB, Philippines","Ortigas Ave, Ortigas Center, Quezon City, Metro Manila, Philippines","(14.5910506, 121.0598379, 0.0)",14.5910506,121.0598379,0.0
787,"C5 before Bagong ilog SB, Philippines","C-5, Pasig, Metro Manila, Philippines","(14.5643396, 121.0696684, 0.0)",14.5643396,121.0696684,0.0
788,"Araneta Ave infront of So-en SB, Philippines","So-en, 299-335 Gregorio Araneta Ave, Quezon City, 1113 Metro Manila, Philippines","(14.613106, 121.0166655, 0.0)",14.613106,121.0166655,0.0
791,"EDSA Central NB, Philippines","United Nations Ave, Ermita, Manila, 1000 Metro Manila, Philippines","(14.5814595, 120.9836439, 0.0)",14.5814595,120.9836439,0.0
793,"EDSA Monte SB, Philippines","8001-A. North, Epifanio de los Santos Ave, Project 7, Quezon City, 1105 Metro Manila, Philippines","(14.657141, 121.020709, 0.0)",14.657141,121.020709,0.0
795,"C5 Bagong Ilog SB, Philippines","C-5, Pasig, Metro Manila, Philippines","(14.5643396, 121.0696684, 0.0)",14.5643396,121.0696684,0.0
796,"EDSA Ortigas SB, Philippines","1 Garden Way, Ortigas Center, Mandaluyong, 1550 Metro Manila, Philippines","(14.5813906, 121.0570799, 0.0)",14.5813906,121.0570799,0.0
798,"EDSA Main Ave. SB, Philippines","37 EDSA corner Boni Avenue, 37 Epifanio de los Santos Ave, Mandaluyong, 1550 Metro Manila, Philippines","(14.5721142, 121.0468128, 0.0)",14.5721142,121.0468128,0.0
799,"EDSA Whiteplains NB, Philippines","Ortigas Ave, Ortigas Center, Quezon City, Metro Manila, Philippines","(14.5910279, 121.0603914, 0.0)",14.5910279,121.0603914,0.0
800,"EDSA Monte SB, Philippines","8001-A. North, Epifanio de los Santos Ave, Project 7, Quezon City, 1105 Metro Manila, Philippines","(14.657141, 121.020709, 0.0)",14.657141,121.020709,0.0
802,"EDSA Estrella NB, Philippines","Regalia Park Towers 150 P. Tuazon Ave. cor. EDSA, Cubao, Quezon City, 1109 Metro Manila, Philippines","(14.615964, 121.053487, 0.0)",14.615964,121.053487,0.0
804,"EDSA-Estrella NB, Philippines","37 EDSA corner Boni Avenue, 37 Epifanio de los Santos Ave, Mandaluyong, 1550 Metro Manila, Philippines","(14.5721142, 121.0468128, 0.0)",14.5721142,121.0468128,0.0
805,"EDSA-Magallanes SB, Philippines","Magallanes Station, Epifanio de los Santos Ave, Makati, Metro Manila, Philippines","(14.5420229, 121.0194852, 0.0)",14.5420229,121.0194852,0.0
806,"Commonwealth-Tandang Sora WB, Philippines","LGF Berkeley Square Building, Commonwealth-Tandang Sora Overpass, Diliman, Quezon City, 1116 Metro Manila, Philippines","(14.6630443, 121.06852, 0.0)",14.6630443,121.06852,0.0
808,"EDSA-Pioneer NB, Philippines","Pioneer St. cor EDSA, Mandaluyong, 1554 Metro Manila, Philippines","(14.5725722, 121.0483433, 0.0)",14.5725722,121.0483433,0.0
809,"Commonwealth-Riverside WB, Philippines",,,,,
810,"C5-Katipunan SB after F/O, Philippines","C-5 & Katipunan Ave, Project 4, Quezon City, 1800 Metro Manila, Philippines","(14.61797, 121.0715627, 0.0)",14.61797,121.0715627,0.0
811,"EDSA-Bansalangin SB, Philippines","Unit 21 H LGF SM City Center, SM City North EDSA, North Avenue corner EDSA Lower Ground Floor Near the FoodCourt and SM Appliance, Bagong Pag-asa, Quezon City, 1105 Metro Manila, Philippines","(14.6566478, 121.0314804, 0.0)",14.6566478,121.0314804,0.0
812,"EDSA-Ortigas NB, Philippines","Ortigas Ave, Ortigas Center, Quezon City, Metro Manila, Philippines","(14.5910279, 121.0603914, 0.0)",14.5910279,121.0603914,0.0
813,"EDSA-Quezon Ave. Centris NB, Philippines","Epifanio de los Santos Ave, cor Quezon Ave, Diliman, Quezon City, Metro Manila, Philippines","(14.6423002, 121.0392617, 0.0)",14.6423002,121.0392617,0.0
816,"EDSA Estrella NB, Philippines","Regalia Park Towers 150 P. Tuazon Ave. cor. EDSA, Cubao, Quezon City, 1109 Metro Manila, Philippines","(14.615964, 121.053487, 0.0)",14.615964,121.053487,0.0
818,"C5 Katipunan Xavierville SB, Philippines","Xavierville Ave, Quezon City, Metro Manila, Philippines","(14.6354708, 121.0684058, 0.0)",14.6354708,121.0684058,0.0
819,"EDSA Magallanes NB, Philippines","Ortigas Ave, Ortigas Center, Quezon City, Metro Manila, Philippines","(14.5910279, 121.0603914, 0.0)",14.5910279,121.0603914,0.0
827,"EDSA Reliance NB , Philippines","EDSA cor. Reliance St., Brgy, Mandaluyong, Metro Manila, Philippines","(14.5767528, 121.0517717, 0.0)",14.5767528,121.0517717,0.0
828,"EDSA P.Tuazon service road NB, Philippines","EDSA cor, P. Tuazon Blvd, Cubao, Lungsod Quezon, 1109 Kalakhang Maynila, Philippines","(14.6161275, 121.0522983, 0.0)",14.6161275,121.0522983,0.0
830,"EDSA Santolan F/O SB, Philippines","Santolan-annapolis, Epifanio de los Santos Ave, San Juan, 1502 Kalakhang Maynila, Philippines","(14.607331, 121.05643, 0.0)",14.607331,121.05643,0.0
833,"EDSA Muñoz SB, Philippines","8001 Epifanio de los Santos Ave, Project 7, Quezon City, 1105 Metro Manila, Philippines","(14.6571184, 121.0210055, 0.0)",14.6571184,121.0210055,0.0
834,"EDSA Santolan SB, Philippines","Ground Floor, Vertis North Mall, EDSA cor, North Ave, Bagong Pag-asa, Quezon City, 1104 Metro Manila, Philippines","(14.6564091, 121.0337515, 0.0)",14.6564091,121.0337515,0.0
835,"C5 Blueridge Libis SB, Philippines","C-5, Metro Manila, Philippines","(14.5588814, 121.0649006, 0.0)",14.5588814,121.0649006,0.0
837,"EDSA NRRS U turn Slot NB, Philippines","Epifanio de los Santos Ave, Metro Manila, Philippines","(14.5766435, 121.0501616, 0.0)",14.5766435,121.0501616,0.0
838,"EDSA Guadalupe NB, Philippines","2195 Epifanio de los Santos Ave, Makati, 1554 Metro Manila, Philippines","(14.5644828, 121.0451481, 0.0)",14.5644828,121.0451481,0.0
839,"Boni SB, Philippines","Boni, F. Ortigas, Mandaluyong, Metro Manila, Philippines","(14.5737673, 121.0481448, 0.0)",14.5737673,121.0481448,0.0
842,"Ortigas Wilson WB, Philippines","Ortigas Ave, Corner Wilson, San Juan, 1503 Metro Manila, Philippines","(14.6009402, 121.047626, 0.0)",14.6009402,121.047626,0.0
843,"Roxas Blvd Airport road NB, Philippines","608 Quirino Ave, Tambo, Parañaque, Metro Manila, Philippines","(14.5179222, 120.9961304, 0.0)",14.5179222,120.9961304,0.0
844,"Marcos Highway Ligaya WB, Philippines","Eulogio Amang Rodriguez Ave, 1800 Marikina-Infanta Hwy, Pasig, 1800 Metro Manila, Philippines","(14.6182313, 121.093512, 0.0)",14.6182313,121.093512,0.0
845,"EDSA Magallanes SB, Philippines","Magallanes Station, Epifanio de los Santos Ave, Makati, Metro Manila, Philippines","(14.5420229, 121.0194852, 0.0)",14.5420229,121.0194852,0.0
847,"EDSA Oliveros SB, Philippines","1150, EDSA, corner Oliveros Drive, Balintawak, Balintawak, Quezon City, 1106 Metro Manila, Philippines","(14.657831, 121.00585, 0.0)",14.657831,121.00585,0.0
848,"EDSA Ayala NB, Philippines","Ayala, Station Dr, Makati, Metro Manila, Philippines","(14.5491906, 121.0279696, 0.0)",14.5491906,121.0279696,0.0
851,"EDSA SM Annex NB, Philippines","Unit 21 H LGF SM City Center, SM City North EDSA, North Avenue corner EDSA Lower Ground Floor Near the FoodCourt and SM Appliance, Bagong Pag-asa, Quezon City, 1105 Metro Manila, Philippines","(14.6566478, 121.0314804, 0.0)",14.6566478,121.0314804,0.0
852,"EDSA Q. Ave NB, Philippines","Quezon Avenue, 1103 Epifanio de los Santos Ave, Diliman, Quezon City, Metro Manila, Philippines","(14.6427595, 121.0385078, 0.0)",14.6427595,121.0385078,0.0
853,"EDSA Shaw Starmall SB, Philippines","Harvard, Mandaluyong, Metro Manila, Philippines","(14.5822941, 121.0529863, 0.0)",14.5822941,121.0529863,0.0
856,"C5 Katipunan Ave. NB, Philippines","C-5 & Katipunan Ave, Project 4, Quezon City, 1800 Metro Manila, Philippines","(14.61797, 121.0715627, 0.0)",14.61797,121.0715627,0.0
857,"EDSA Muñoz NB, Philippines","8001 Epifanio de los Santos Ave, Project 7, Quezon City, 1105 Metro Manila, Philippines","(14.6571184, 121.0210055, 0.0)",14.6571184,121.0210055,0.0
858,"EDSA Orense SB, Philippines","Orense, Makati, Metro Manila, Philippines","(14.5613611, 121.0436189, 0.0)",14.5613611,121.0436189,0.0
859,"EDSA Buendia U-turn slot, Philippines","Epifanio de los Santos Ave & Buendia Ave, Makati, Metro Manila, Philippines","(14.5548517, 121.0346733, 0.0)",14.5548517,121.0346733,0.0
860,"EDSA Ayala Tunnel SB, Philippines","Antonio S Arnaiz Ave, Makati, Metro Manila, Philippines","(14.547475, 121.0260548, 0.0)",14.547475,121.0260548,0.0
861,"EDSA Buendia SB, Philippines","G/F SM Cyber Two Bldg., EDSA Buendia, Makati, 1226 Metro Manila, Philippines","(14.5561598, 121.0342554, 0.0)",14.5561598,121.0342554,0.0
862,"Katipunan  CP Garcia SB, Philippines","Unit 2 TBI, U.P. Ayala Technology Park C.P. Garcia, corner Katipunan Ave, Diliman, Quezon City, 1101 Metro Manila, Philippines","(14.6477889, 121.0732612, 0.0)",14.6477889,121.0732612,0.0
864,"Katipunan  infront of MWSS SB, Philippines","Katipunan, Aurora Blvd, Project 4, Quezon City, Metro Manila, Philippines","(14.6307723, 121.0727009, 0.0)",14.6307723,121.0727009,0.0
865,"EDSA Annapolis SB, Philippines","Unit 21 H LGF SM City Center, SM City North EDSA, North Avenue corner EDSA Lower Ground Floor Near the FoodCourt and SM Appliance, Bagong Pag-asa, Quezon City, 1105 Metro Manila, Philippines","(14.6566478, 121.0314804, 0.0)",14.6566478,121.0314804,0.0
866,"Ortigas Emerald EB, Philippines","22 Emerald Ave, San Antonio, Pasig, Metro Manila, Philippines","(14.5855824, 121.0614136, 0.0)",14.5855824,121.0614136,0.0
867,"EDSA Kamuning SB, Philippines","GMA Kamuning Station, 32 Samar Ave, Diliman, Quezon City, 1103 Metro Manila, Philippines","(14.6352168, 121.0433426, 0.0)",14.6352168,121.0433426,0.0
869,"EDSA Guadalupe SB, Philippines","Tan Hock Bldg. Edsa, Cor P.Burgos, St, Makati, Kalakhang Maynila, Philippines","(14.5652663, 121.0453941, 0.0)",14.5652663,121.0453941,0.0
870,"EDSA Kaingin SB, Philippines","Kaingin Road, Epifanio de los Santos Ave, Balintawak, Quezon City, Metro Manila, Philippines","(14.6573199, 121.0106323, 0.0)",14.6573199,121.0106323,0.0
871,"MIA Domestic SB, Philippines",,,,,
872,"EDSA Aurora tunnel SB, Philippines","EDSA Aurora Blvd Tunnel, 655 Epifanio de los Santos Ave, Cubao, Quezon City, 1111 Metro Manila, Philippines","(14.6215316, 121.0501176, 0.0)",14.6215316,121.0501176,0.0
873,"Quezon Ave Agham road WB, Philippines","2nd Flr. Doctor's Clinic Quezon Avenue, cor Agham Rd, Diliman, Quezon City, 1101 Metro Manila, Philippines","(14.6476963, 121.0411248, 0.0)",14.6476963,121.0411248,0.0
875,"C5 Lanuza SB, Philippines","Lanuza, Surigao del Sur, Philippines","(9.1515977, 126.0132051, 0.0)",9.1515977,126.0132051,0.0
876,"EDSA Central NB, Philippines","United Nations Ave, Ermita, Manila, 1000 Metro Manila, Philippines","(14.5814595, 120.9836439, 0.0)",14.5814595,120.9836439,0.0
877,"C5-Greenmeadows NB, Philippines","C-5, Metro Manila, Philippines","(14.5588814, 121.0649006, 0.0)",14.5588814,121.0649006,0.0
878,"Mabini Bridge SB, Philippines","Mabini Bridge, Pasig River, Manila, Metro Manila, Philippines","(14.5960082, 121.0014188, 0.0)",14.5960082,121.0014188,0.0
879,"C5-Ortigas EB, Philippines","C-5, Metro Manila, Philippines","(14.5588814, 121.0649006, 0.0)",14.5588814,121.0649006,0.0
880,"EDSA-Boni G.A Tower NB, Philippines","587-658 Sierra Madre, Mandaluyong, 1550 Kalakhang Maynila, Philippines","(14.574448, 121.047831, 0.0)",14.574448,121.047831,0.0
881,"EDSA G.A Tower NB, Philippines","587-658 Sierra Madre, Mandaluyong, 1550 Kalakhang Maynila, Philippines","(14.574448, 121.047831, 0.0)",14.574448,121.047831,0.0
882,"Katipunan Libis NB, Philippines","2nd - 4t F IBM Plaza, 8 Eastwood Ave, Bagumbayan, Quezon City, 1110 Metro Manila, Philippines","(14.6075855, 121.0798929, 0.0)",14.6075855,121.0798929,0.0
883,"C5 Market Market NB, Philippines","McKinley Pkwy, Taguig, 1630 Metro Manila, Philippines","(14.5491314, 121.0558947, 0.0)",14.5491314,121.0558947,0.0
885,"EDSA Shaw tunnel NB, Philippines","Mayaman, Diliman, Lungsod Quezon, Kalakhang Maynila, Philippines","(14.6464689, 121.0521788, 0.0)",14.6464689,121.0521788,0.0
886,"EDSA MRT North SB, Philippines","North Avenue, Bagong Pag-asa, Quezon City, Metro Manila, Philippines","(14.65217, 121.032333, 0.0)",14.65217,121.032333,0.0
892,"Quezon Ave. Delta WB, Philippines","West Avenue, Nayong Kaunlaran , 1104 Quezon City , Metro Manila, Quezon City, Metro Manila, Philippines","(14.6377462, 121.0265152, 0.0)",14.6377462,121.0265152,0.0
893,"C5 Eastwood NB, Philippines","Eulogio Rodriguez Jr. Ave, Bagumbayan, Quezon City, 1800 Metro Manila, Philippines","(14.6096463, 121.0796001, 0.0)",14.6096463,121.0796001,0.0
894,"C5 Katipunan after B. Serrano Tunnel NB, Philippines","B Serrano Bus Stop, Northbound, Epifanio de los Santos Ave, Lungsod Quezon, Kalakhang Maynila, Philippines","(14.6069321, 121.0571027, 0.0)",14.6069321,121.0571027,0.0
895,"EDSA Evangelista SB, Philippines","Edsa Cor Evangelista Bangkal, Makati, Metro Manila, Philippines","(14.5392943, 121.0121738, 0.0)",14.5392943,121.0121738,0.0
896,"Elliptical North Ave., Philippines","Elliptical Rd, Quezon City, Metro Manila, Philippines","(14.6995906, 121.0825585, 0.0)",14.6995906,121.0825585,0.0
897,"EDSA-Ayala tunnel NB, Philippines","Edsa-Ayala, Makati, Metro Manila, Philippines","(14.549372, 121.029081, 0.0)",14.549372,121.029081,0.0
898,"Commonwealth-Philcoa EB, Philippines","G/F DBP Bldg., Commonwealth Ave., Diliman,, Diliman, Quezon City, Metro Manila, Philippines","(14.654577, 121.053247, 0.0)",14.654577,121.053247,0.0
899,"Commonwealth-Luzon EB, Philippines","Matandang Balara, Quezon City, 1121 Metro Manila, Philippines","(14.6664972, 121.0710401, 0.0)",14.6664972,121.0710401,0.0
900,"Quezon Ave. Elliptical WB, Philippines",,,,,
901,"EDSA-Buendia Loading Bay NB, Philippines","Epifanio de los Santos Ave & Buendia Ave, Makati, Metro Manila, Philippines","(14.5548517, 121.0346733, 0.0)",14.5548517,121.0346733,0.0
904,"EDSA-Guadalupe Bridge NB, Philippines","Epifanio de los Santos Ave, Metro Manila, Philippines","(14.5766435, 121.0501616, 0.0)",14.5766435,121.0501616,0.0
906,"Katipunan Ateneo NB, Philippines",,,,,
907,"Katipunan after Luzon F/O SB, Philippines","Roxas Ave, Diliman, Quezon City, Metro Manila, Philippines","(14.6538817, 121.0685049, 0.0)",14.6538817,121.0685049,0.0
909,"C5 Kalayaan svc road NB, Philippines","C-5 & Kalayaan Ave, Makati, Metro Manila, Philippines","(14.5564054, 121.0631174, 0.0)",14.5564054,121.0631174,0.0
912,"EDSA MRT Santolan NB, Philippines","Santolan-Annapolis, Epifanio de los Santos Ave, Quezon City, Metro Manila, Philippines","(14.6078175, 121.0564144, 0.0)",14.6078175,121.0564144,0.0
913,"EDSA Estrella SB, Philippines","Epifanio de los Santos Avenue & Estrella, Makati, Metro Manila, Philippines","(14.5599457, 121.0406986, 0.0)",14.5599457,121.0406986,0.0
914,"EDSA Pasay Road NB, Philippines","F.B. Harrison St, Pasay, 1302 Metro Manila, Philippines","(14.543747, 120.99492, 0.0)",14.543747,120.99492,0.0
916,"EDSA Balintawak SB, Philippines","1238 Epifanio de los Santos Ave, Balintawak, Quezon City, 1106 Metro Manila, Philippines","(14.65799, 121.013701, 0.0)",14.65799,121.013701,0.0
917,"Katipunan Miriam SB, Philippines","Katipunan Avenue, Loyola Heights, Quezon City, 1108 Metro Manila, Philippines","(14.6436818, 121.076628, 0.0)",14.6436818,121.076628,0.0
918,"EDSA Guadix NB, Philippines","Ortigas Ave, Ortigas Center, Quezon City, Metro Manila, Philippines","(14.5910279, 121.0603914, 0.0)",14.5910279,121.0603914,0.0
919,"Quezon Ave. Roosevelt WB, Philippines","Second District, 73 Roosevelt Ave, San Francisco del Monte, Quezon City, 1104 Metro Manila, Philippines","(14.6341129, 121.0177614, 0.0)",14.6341129,121.0177614,0.0
920,"Quezon Ave. Roosevelt WB, Philippines","Second District, 73 Roosevelt Ave, San Francisco del Monte, Quezon City, 1104 Metro Manila, Philippines","(14.6341129, 121.0177614, 0.0)",14.6341129,121.0177614,0.0
921,"EDSA MRT Guadalupe NB, Philippines","Guadalupe, ext.cembo Guadalupe 1212, Guijo, Makati, Metro Manila, Philippines","(14.5667504, 121.0454767, 0.0)",14.5667504,121.0454767,0.0
922,"EDSA Santolan SB, Philippines","Ground Floor, Vertis North Mall, EDSA cor, North Ave, Bagong Pag-asa, Quezon City, 1104 Metro Manila, Philippines","(14.6564091, 121.0337515, 0.0)",14.6564091,121.0337515,0.0
926,"EDSA Monte De Piedad SB, Philippines","Monte De Piedad, Southbound, Epifanio de los Santos Ave, Lungsod Quezon, Kalakhang Maynila, Philippines","(14.623738, 121.048881, 0.0)",14.623738,121.048881,0.0
927,"C5-Kalayaan NB, Philippines","C-5, Metro Manila, Philippines","(14.5588814, 121.0649006, 0.0)",14.5588814,121.0649006,0.0
928,"Commo-Home Depot Old Balara WB, Philippines","Commonwealth Ave, Matandang Balara, Quezon City, Metro Manila, Philippines","(14.6673371, 121.0750359, 0.0)",14.6673371,121.0750359,0.0
929,"EDSA Reliance NB, Philippines","EDSA cor. Reliance St., Brgy, Mandaluyong, Metro Manila, Philippines","(14.5767528, 121.0517717, 0.0)",14.5767528,121.0517717,0.0
930,"Commonwealth Atherton EB, Philippines",,,,,
931,"EDSA Magallanes NB, Philippines","Ortigas Ave, Ortigas Center, Quezon City, Metro Manila, Philippines","(14.5910279, 121.0603914, 0.0)",14.5910279,121.0603914,0.0
933,"Ortigas Meralco EB, Philippines","Ortigas Center, Pasig, Metro Manila, Philippines","(14.5897939, 121.0637992, 0.0)",14.5897939,121.0637992,0.0
935,"C5 Bagong Ilog NB, Philippines","C-5, Pasig, Metro Manila, Philippines","(14.5643396, 121.0696684, 0.0)",14.5643396,121.0696684,0.0
936,"EDSA before Santolan F/O NB, Philippines","Santolan-annapolis, Epifanio de los Santos Ave, San Juan, 1502 Kalakhang Maynila, Philippines","(14.607331, 121.05643, 0.0)",14.607331,121.05643,0.0
937,"EDSA Magallanes  F/O NB, Philippines","EDSA, corner Magallanes Avenue, Pasay City, 1300 Metro Manila, Philippines","(14.5389703, 121.0136577, 0.0)",14.5389703,121.0136577,0.0
939,"MIA Coastal NB, Philippines",,,,,
941,"Roxas Blvd. MIA Coastal NB, Philippines","Roxas Blvd, Malate, Manila, 1004 Metro Manila, Philippines","(14.568052, 120.982999, 0.0)",14.568052,120.982999,0.0
942,"EDSA Rockwell SB, Philippines","2/F Pavilion Greenfield District, Mandaluyong, 1552 Metro Manila, Philippines","(14.5787048, 121.0528717, 0.0)",14.5787048,121.0528717,0.0
944,"EDSA Reliance NB, Philippines","EDSA cor. Reliance St., Brgy, Mandaluyong, Metro Manila, Philippines","(14.5767528, 121.0517717, 0.0)",14.5767528,121.0517717,0.0
945,"Marcos hi-way Burger King UTS WB, Philippines",,,,,
947,"Commonwealth Balara EB, Philippines","Amsterdam Avenue, Don Antonio Drive, Brgy. Batasan Hills, Matandang Balara, Quezon City, 1109 Metro Manila, Philippines","(14.6765861, 121.0872741, 0.0)",14.6765861,121.0872741,0.0
948,"EDSA Ortigas Int. NB, Philippines","1 Garden Way, Ortigas Center, Mandaluyong, 1550 Metro Manila, Philippines","(14.5813906, 121.0570799, 0.0)",14.5813906,121.0570799,0.0
949,"C5-Greenmeadows SB, Philippines","C-5, Metro Manila, Philippines","(14.5588814, 121.0649006, 0.0)",14.5588814,121.0649006,0.0
950,"EDSA-Balintawak SB, Philippines","1238 Epifanio de los Santos Ave, Balintawak, Quezon City, 1106 Metro Manila, Philippines","(14.65799, 121.013701, 0.0)",14.65799,121.013701,0.0
951,"Mia Domestic EB, Philippines",,,,,
